{"locations":[{"recommendation":{},"storeNumber":"14318-119964","id":"10655","name":"Nassau & Fulton","phoneNumber":"212-962-0439","coordinates":{"latitude":40.710171,"longitude":-74.007931},"regulations":[{"code":"taxForOutOfStoreConsumption"}],"address":{"streetAddressLine1":"130 Fulton Street","streetAddressLine2":null,"streetAddressLine3":null,"city":"New York","countrySubdivisionCode":"NY","countryCode":"US","postalCode":"100382504"},"timeZoneInfo":{"currentTimeOffset":-240,"windowsTimeZoneId":"Eastern Standard Time","olsonTimeZoneId":"GMT-05:00 America/New_York"},"brandName":"Starbucks","ownershipTypeCode":"CO","open":true,"openStatusText":"Open until 6:30 PM","addressLines":["130 Fulton Street","New York, NY 10038"],"mop":{"ready":false,"wait":null},"schedule":[{"dayName":"Today","hours":"6:30 AM to 6:30 PM","open":true,"holiday":""},{"dayName":"Tomorrow","hours":"6:00 AM to 7:00 PM","open":true,"holiday":""},{"dayName":"Tuesday","hours":"6:00 AM to 7:00 PM","open":true,"holiday":""},{"dayName":"Wednesday","hours":"6:00 AM to 7:00 PM","open":true,"holiday":""},{"dayName":"Thursday","hours":"6:00 AM to 7:00 PM","open":true,"holiday":""},{"dayName":"Friday","hours":"6:00 AM to 7:00 PM","open":true,"holiday":""},{"dayName":"Saturday","hours":"5:00 AM to 7:00 PM","open":true,"holiday":""}],"features":[{"code":"WA","name":"Oven-warmed Food"},{"code":"VS","name":"Verismo"},{"code":"CD","name":"Mobile Payment"},{"code":"DR","name":"Digital Rewards"},{"code":"LB","name":"LaBoulange"},{"code":"GO","name":"Google Wi-Fi"},{"code":"XO","name":"Mobile Order and Pay"},{"code":"MX","name":"Music Experience"},{"code":"NB","name":"Nitro Cold Brew"},{"code":"LU","name":"Lunch"},{"code":"BE","name":"tbd - Blonde Espresso"}],"slug":"nassau-fulton-130-fulton-street-new-york-ny-100382504-us"},{"recommendation":{},"storeNumber":"849-2059","id":"12020","name":"Park Row at Beekman St","phoneNumber":"212-608-8073","coordinates":{"latitude":40.711644,"longitude":-74.006667},"regulations":[{"code":"taxForOutOfStoreConsumption"}],"address":{"streetAddressLine1":"38 Park Row","streetAddressLine2":"#4","streetAddressLine3":null,"city":"New York","countrySubdivisionCode":"NY","countryCode":"US","postalCode":"100381551"},"timeZoneInfo":{"currentTimeOffset":-240,"windowsTimeZoneId":"Eastern Standard Time","olsonTimeZoneId":"GMT-05:00 America/New_York"},"brandName":"Starbucks","ownershipTypeCode":"CO","open":true,"openStatusText":"Open until 7:30 PM","addressLines":["38 Park Row","#4","New York, NY 10038"],"mop":{"ready":false,"wait":null},"schedule":[{"dayName":"Today","hours":"6:00 AM to 7:30 PM","open":true,"holiday":""},{"dayName":"Tomorrow","hours":"6:00 AM to 8:00 PM","open":true,"holiday":""},{"dayName":"Tuesday","hours":"6:00 AM to 8:00 PM","open":true,"holiday":""},{"dayName":"Wednesday","hours":"6:00 AM to 8:00 PM","open":true,"holiday":""},{"dayName":"Thursday","hours":"6:00 AM to 8:00 PM","open":true,"holiday":""},{"dayName":"Friday","hours":"6:00 AM to 8:00 PM","open":true,"holiday":""},{"dayName":"Saturday","hours":"6:00 AM to 8:00 PM","open":true,"holiday":""}],"features":[{"code":"WA","name":"Oven-warmed Food"},{"code":"CD","name":"Mobile Payment"},{"code":"DR","name":"Digital Rewards"},{"code":"LB","name":"LaBoulange"},{"code":"GO","name":"Google Wi-Fi"},{"code":"XO","name":"Mobile Order and Pay"},{"code":"MX","name":"Music Experience"},{"code":"NB","name":"Nitro Cold Brew"},{"code":"LU","name":"Lunch"},{"code":"BE","name":"tbd - Blonde Espresso"},{"code":"UE","name":"tbd - Uber Eats"}],"slug":"park-row-at-beekman-st-38-park-row-new-york-ny-100381551-us"},{"recommendation":{},"storeNumber":"7493-6648","id":"16844","name":"100 Williams Street","phoneNumber":"212-509-9709","coordinates":{"latitude":40.708411,"longitude":-74.007404},"regulations":[{"code":"taxForOutOfStoreConsumption"}],"address":{"streetAddressLine1":"100 William Street","streetAddressLine2":null,"streetAddressLine3":null,"city":"New York","countrySubdivisionCode":"NY","countryCode":"US","postalCode":"100384512"},"timeZoneInfo":{"currentTimeOffset":-240,"windowsTimeZoneId":"Eastern Standard Time","olsonTimeZoneId":"GMT-05:00 America/New_York"},"brandName":"Starbucks","ownershipTypeCode":"CO","open":true,"openStatusText":"Open until 5:30 PM","addressLines":["100 William Street","New York, NY 10038"],"mop":{"ready":false,"wait":null},"schedule":[{"dayName":"Today","hours":"6:30 AM to 5:30 PM","open":true,"holiday":""},{"dayName":"Tomorrow","hours":"6:00 AM to 6:00 PM","open":true,"holiday":""},{"dayName":"Tuesday","hours":"6:00 AM to 6:00 PM","open":true,"holiday":""},{"dayName":"Wednesday","hours":"6:00 AM to 6:00 PM","open":true,"holiday":""},{"dayName":"Thursday","hours":"6:00 AM to 6:00 PM","open":true,"holiday":""},{"dayName":"Friday","hours":"6:00 AM to 6:00 PM","open":true,"holiday":""},{"dayName":"Saturday","hours":"6:30 AM to 6:00 PM","open":true,"holiday":""}],"features":[{"code":"WA","name":"Oven-warmed Food"},{"code":"WF","name":"Wireless Hotspot"},{"code":"CD","name":"Mobile Payment"},{"code":"DR","name":"Digital Rewards"},{"code":"LB","name":"LaBoulange"},{"code":"XO","name":"Mobile Order and Pay"},{"code":"MX","name":"Music Experience"},{"code":"LU","name":"Lunch"},{"code":"BE","name":"tbd - Blonde Espresso"},{"code":"UE","name":"tbd - Uber Eats"}],"slug":"100-williams-street-100-william-street-new-york-ny-100384512-us"},{"recommendation":{},"storeNumber":"7691-52959","id":"9218","name":"Liberty & Nassau","phoneNumber":"212-227-0372","coordinates":{"latitude":40.708742,"longitude":-74.009508},"regulations":[{"code":"taxForOutOfStoreConsumption"}],"address":{"streetAddressLine1":"55 Liberty Street","streetAddressLine2":null,"streetAddressLine3":null,"city":"New York","countrySubdivisionCode":"NY","countryCode":"US","postalCode":"100051003"},"timeZoneInfo":{"currentTimeOffset":-240,"windowsTimeZoneId":"Eastern Standard Time","olsonTimeZoneId":"GMT-05:00 America/New_York"},"brandName":"Starbucks","ownershipTypeCode":"CO","open":false,"openStatusText":"Closed","addressLines":["55 Liberty Street","New York, NY 10005"],"mop":{"ready":false,"wait":null},"schedule":[{"dayName":"Today","hours":"Closed","open":false,"holiday":""},{"dayName":"Tomorrow","hours":"6:00 AM to 6:30 PM","open":true,"holiday":""},{"dayName":"Tuesday","hours":"6:00 AM to 6:30 PM","open":true,"holiday":""},{"dayName":"Wednesday","hours":"6:00 AM to 6:30 PM","open":true,"holiday":""},{"dayName":"Thursday","hours":"6:00 AM to 6:30 PM","open":true,"holiday":""},{"dayName":"Friday","hours":"6:00 AM to 6:30 PM","open":true,"holiday":""},{"dayName":"Saturday","hours":"Closed","open":false,"holiday":""}],"features":[{"code":"WA","name":"Oven-warmed Food"},{"code":"WF","name":"Wireless Hotspot"},{"code":"CD","name":"Mobile Payment"},{"code":"DR","name":"Digital Rewards"},{"code":"LB","name":"LaBoulange"},{"code":"XO","name":"Mobile Order and Pay"},{"code":"MX","name":"Music Experience"},{"code":"LU","name":"Lunch"},{"code":"BE","name":"tbd - Blonde Espresso"},{"code":"UE","name":"tbd - Uber Eats"}],"slug":"liberty-nassau-55-liberty-street-new-york-ny-100051003-us"},{"recommendation":{},"storeNumber":"7375-1557","id":"16209","name":"195 Broadway","phoneNumber":"212 3851104","coordinates":{"latitude":40.710924,"longitude":-74.010283},"regulations":[{"code":"taxForOutOfStoreConsumption"}],"address":{"streetAddressLine1":"195 Broadway","streetAddressLine2":null,"streetAddressLine3":null,"city":"New York","countrySubdivisionCode":"NY","countryCode":"US","postalCode":"100073100"},"timeZoneInfo":{"currentTimeOffset":-240,"windowsTimeZoneId":"Eastern Standard Time","olsonTimeZoneId":"GMT-05:00 America/New_York"},"brandName":"Starbucks","ownershipTypeCode":"CO","open":true,"openStatusText":"Open until 8:30 PM","addressLines":["195 Broadway","New York, NY 10007"],"mop":{"ready":false,"wait":null},"schedule":[{"dayName":"Today","hours":"6:30 AM to 8:30 PM","open":true,"holiday":""},{"dayName":"Tomorrow","hours":"6:00 AM to 8:00 PM","open":true,"holiday":""},{"dayName":"Tuesday","hours":"6:00 AM to 8:00 PM","open":true,"holiday":""},{"dayName":"Wednesday","hours":"6:00 AM to 8:00 PM","open":true,"holiday":""},{"dayName":"Thursday","hours":"6:00 AM to 8:00 PM","open":true,"holiday":""},{"dayName":"Friday","hours":"6:00 AM to 7:00 PM","open":true,"holiday":""},{"dayName":"Saturday","hours":"7:00 AM to 9:00 PM","open":true,"holiday":""}],"features":[{"code":"WA","name":"Oven-warmed Food"},{"code":"WF","name":"Wireless Hotspot"},{"code":"VS","name":"Verismo"},{"code":"CD","name":"Mobile Payment"},{"code":"DR","name":"Digital Rewards"},{"code":"LB","name":"LaBoulange"},{"code":"XO","name":"Mobile Order and Pay"},{"code":"MX","name":"Music Experience"},{"code":"NB","name":"Nitro Cold Brew"},{"code":"LU","name":"Lunch"},{"code":"BE","name":"tbd - Blonde Espresso"}],"slug":"195-broadway-195-broadway-new-york-ny-100073100-us"},{"recommendation":{},"storeNumber":"7560-14070","id":"13537","name":"Broadway at Barclay Str","phoneNumber":"212-619-1529","coordinates":{"latitude":40.712208,"longitude":-74.008192},"regulations":[{"code":"taxForOutOfStoreConsumption"}],"address":{"streetAddressLine1":"233 Broadway","streetAddressLine2":null,"streetAddressLine3":null,"city":"New York","countrySubdivisionCode":"NY","countryCode":"US","postalCode":"102790001"},"timeZoneInfo":{"currentTimeOffset":-240,"windowsTimeZoneId":"Eastern Standard Time","olsonTimeZoneId":"GMT-05:00 America/New_York"},"brandName":"Starbucks","ownershipTypeCode":"CO","open":true,"openStatusText":"Open until 7:00 PM","addressLines":["233 Broadway","New York, NY 10279"],"mop":{"ready":false,"wait":null},"schedule":[{"dayName":"Today","hours":"7:00 AM to 7:00 PM","open":true,"holiday":""},{"dayName":"Tomorrow","hours":"6:00 AM to 7:00 PM","open":true,"holiday":""},{"dayName":"Tuesday","hours":"6:00 AM to 7:00 PM","open":true,"holiday":""},{"dayName":"Wednesday","hours":"6:00 AM to 7:00 PM","open":true,"holiday":""},{"dayName":"Thursday","hours":"6:00 AM to 7:00 PM","open":true,"holiday":""},{"dayName":"Friday","hours":"6:00 AM to 7:00 PM","open":true,"holiday":""},{"dayName":"Saturday","hours":"7:00 AM to 7:00 PM","open":true,"holiday":""}],"features":[{"code":"WA","name":"Oven-warmed Food"},{"code":"CD","name":"Mobile Payment"},{"code":"DR","name":"Digital Rewards"},{"code":"LB","name":"LaBoulange"},{"code":"GO","name":"Google Wi-Fi"},{"code":"XO","name":"Mobile Order and Pay"},{"code":"MX","name":"Music Experience"},{"code":"LU","name":"Lunch"},{"code":"BE","name":"tbd - Blonde Espresso"}],"slug":"broadway-at-barclay-str-233-broadway-new-york-ny-102790001-us"},{"recommendation":{},"storeNumber":"7788-64366","id":"17705","name":"Broadway & Thames","phoneNumber":"212-732-9268","coordinates":{"latitude":40.708729,"longitude":-74.011114},"regulations":[{"code":"taxForOutOfStoreConsumption"}],"address":{"streetAddressLine1":"115 Broadway","streetAddressLine2":null,"streetAddressLine3":null,"city":"New York","countrySubdivisionCode":"NY","countryCode":"US","postalCode":"100061604"},"timeZoneInfo":{"currentTimeOffset":-240,"windowsTimeZoneId":"Eastern Standard Time","olsonTimeZoneId":"GMT-05:00 America/New_York"},"brandName":"Starbucks","ownershipTypeCode":"CO","open":true,"openStatusText":"Open until 6:00 PM","addressLines":["115 Broadway","New York, NY 10006"],"mop":{"ready":false,"wait":null},"schedule":[{"dayName":"Today","hours":"7:30 AM to 6:00 PM","open":true,"holiday":""},{"dayName":"Tomorrow","hours":"5:30 AM to 7:00 PM","open":true,"holiday":""},{"dayName":"Tuesday","hours":"5:30 AM to 7:00 PM","open":true,"holiday":""},{"dayName":"Wednesday","hours":"5:30 AM to 7:00 PM","open":true,"holiday":""},{"dayName":"Thursday","hours":"5:30 AM to 7:00 PM","open":true,"holiday":""},{"dayName":"Friday","hours":"5:30 AM to 7:00 PM","open":true,"holiday":""},{"dayName":"Saturday","hours":"7:30 AM to 7:00 PM","open":true,"holiday":""}],"features":[{"code":"WA","name":"Oven-warmed Food"},{"code":"WF","name":"Wireless Hotspot"},{"code":"CD","name":"Mobile Payment"},{"code":"DR","name":"Digital Rewards"},{"code":"LB","name":"LaBoulange"},{"code":"XO","name":"Mobile Order and Pay"},{"code":"MX","name":"Music Experience"},{"code":"LU","name":"Lunch"},{"code":"BE","name":"tbd - Blonde Espresso"}],"slug":"broadway-thames-115-broadway-new-york-ny-100061604-us"},{"recommendation":{},"storeNumber":"29854-255485","id":"1017924","name":"WTC- Wall St Concourse","phoneNumber":"2122330013","coordinates":{"latitude":40.710372,"longitude":-74.011793},"regulations":[{"code":"taxForOutOfStoreConsumption"}],"address":{"streetAddressLine1":"4 World Trade Center","streetAddressLine2":"LL4350","streetAddressLine3":null,"city":"New York","countrySubdivisionCode":"NY","countryCode":"US","postalCode":"10007"},"timeZoneInfo":{"currentTimeOffset":-240,"windowsTimeZoneId":"Eastern Standard Time","olsonTimeZoneId":"GMT-05:00 America/New_York"},"brandName":"Starbucks","ownershipTypeCode":"CO","open":true,"openStatusText":"Open until 8:00 PM","addressLines":["4 World Trade Center","LL4350","New York, NY 10007"],"mop":{"ready":false,"wait":null},"schedule":[{"dayName":"Today","hours":"7:30 AM to 8:00 PM","open":true,"holiday":""},{"dayName":"Tomorrow","hours":"6:00 AM to 8:00 PM","open":true,"holiday":""},{"dayName":"Tuesday","hours":"6:00 AM to 8:00 PM","open":true,"holiday":""},{"dayName":"Wednesday","hours":"6:00 AM to 8:00 PM","open":true,"holiday":""},{"dayName":"Thursday","hours":"6:00 AM to 8:00 PM","open":true,"holiday":""},{"dayName":"Friday","hours":"6:00 AM to 8:00 PM","open":true,"holiday":""},{"dayName":"Saturday","hours":"7:30 AM to 8:00 PM","open":true,"holiday":""}],"features":[{"code":"WA","name":"Oven-warmed Food"},{"code":"WF","name":"Wireless Hotspot"},{"code":"CD","name":"Mobile Payment"},{"code":"DR","name":"Digital Rewards"},{"code":"LB","name":"LaBoulange"},{"code":"GO","name":"Google Wi-Fi"},{"code":"XO","name":"Mobile Order and Pay"},{"code":"NB","name":"Nitro Cold Brew"},{"code":"LU","name":"Lunch"},{"code":"RW","name":"My Starbucks Rewards"},{"code":"PS","name":"Playbook Store System"}],"slug":"wtc-wall-st-concourse-4-world-trade-center-new-york-ny-10007-us"},{"recommendation":{},"storeNumber":"25273-238412","id":"1016031","name":"World Trade Center Oculus","phoneNumber":"646-856-5994","coordinates":{"latitude":40.712198,"longitude":-74.010891},"regulations":[{"code":"taxForOutOfStoreConsumption"}],"address":{"streetAddressLine1":"Two World Trade Center, 33 Vesey St.","streetAddressLine2":"Loading Dock 2","streetAddressLine3":null,"city":"New York","countrySubdivisionCode":"NY","countryCode":"US","postalCode":"10007"},"timeZoneInfo":{"currentTimeOffset":-240,"windowsTimeZoneId":"Eastern Standard Time","olsonTimeZoneId":"GMT-05:00 America/New_York"},"brandName":"Starbucks","ownershipTypeCode":"CO","open":true,"openStatusText":"Open until 7:30 PM","addressLines":["Two World Trade Center, 33 Vesey St.","Loading Dock 2","New York, NY 10007"],"mop":{"ready":false,"wait":null},"schedule":[{"dayName":"Today","hours":"7:00 AM to 7:30 PM","open":true,"holiday":""},{"dayName":"Tomorrow","hours":"5:30 AM to 7:30 PM","open":true,"holiday":""},{"dayName":"Tuesday","hours":"5:30 AM to 7:30 PM","open":true,"holiday":""},{"dayName":"Wednesday","hours":"5:30 AM to 7:30 PM","open":true,"holiday":""},{"dayName":"Thursday","hours":"5:30 AM to 7:30 PM","open":true,"holiday":""},{"dayName":"Friday","hours":"5:30 AM to 7:30 PM","open":true,"holiday":""},{"dayName":"Saturday","hours":"6:00 AM to 7:30 PM","open":true,"holiday":""}],"features":[{"code":"WA","name":"Oven-warmed Food"},{"code":"WF","name":"Wireless Hotspot"},{"code":"CD","name":"Mobile Payment"},{"code":"DR","name":"Digital Rewards"},{"code":"LB","name":"LaBoulange"},{"code":"GO","name":"Google Wi-Fi"},{"code":"XO","name":"Mobile Order and Pay"},{"code":"NB","name":"Nitro Cold Brew"},{"code":"LU","name":"Lunch"},{"code":"RW","name":"My Starbucks Rewards"},{"code":"PS","name":"Playbook Store System"},{"code":"BE","name":"tbd - Blonde Espresso"}],"slug":"world-trade-center-oculus-two-world-trade-center-33-vesey-st-new-york-ny-100"},{"recommendation":{},"storeNumber":"25818-242585","id":"1011752","name":"14 Wall St","phoneNumber":"6465966331","coordinates":{"latitude":40.70746,"longitude":-74.010961},"regulations":[{"code":"taxForOutOfStoreConsumption"}],"address":{"streetAddressLine1":"14 Wall St","streetAddressLine2":null,"streetAddressLine3":null,"city":"New York","countrySubdivisionCode":"NY","countryCode":"US","postalCode":"10005"},"timeZoneInfo":{"currentTimeOffset":-240,"windowsTimeZoneId":"Eastern Standard Time","olsonTimeZoneId":"GMT-05:00 America/New_York"},"brandName":"Starbucks","ownershipTypeCode":"CO","open":true,"openStatusText":"Open until 5:30 PM","addressLines":["14 Wall St","New York, NY 10005"],"mop":{"ready":false,"wait":null},"schedule":[{"dayName":"Today","hours":"7:30 AM to 5:30 PM","open":true,"holiday":""},{"dayName":"Tomorrow","hours":"5:30 AM to 5:30 PM","open":true,"holiday":""},{"dayName":"Tuesday","hours":"5:30 AM to 5:30 PM","open":true,"holiday":""},{"dayName":"Wednesday","hours":"5:30 AM to 5:30 PM","open":true,"holiday":""},{"dayName":"Thursday","hours":"5:30 AM to 5:30 PM","open":true,"holiday":""},{"dayName":"Friday","hours":"5:30 AM to 6:30 PM","open":true,"holiday":""},{"dayName":"Saturday","hours":"7:30 AM to 6:00 PM","open":true,"holiday":""}],"features":[{"code":"WA","name":"Oven-warmed Food"},{"code":"CD","name":"Mobile Payment"},{"code":"DR","name":"Digital Rewards"},{"code":"LB","name":"LaBoulange"},{"code":"GO","name":"Google Wi-Fi"},{"code":"MX","name":"Music Experience"},{"code":"NB","name":"Nitro Cold Brew"},{"code":"LU","name":"Lunch"},{"code":"RW","name":"My Starbucks Rewards"},{"code":"PS","name":"Playbook Store System"},{"code":"BE","name":"tbd - Blonde Espresso"}],"slug":"14-wall-st-14-wall-st-new-york-ny-10005-us"},{"recommendation":{},"storeNumber":"14841-127064","id":"11040","name":"Church Street & Murray","phoneNumber":"212-513-1451","coordinates":{"latitude":40.71378,"longitude":-74.009126},"regulations":[{"code":"taxForOutOfStoreConsumption"}],"address":{"streetAddressLine1":"120 Church Street","streetAddressLine2":null,"streetAddressLine3":null,"city":"New York","countrySubdivisionCode":"NY","countryCode":"US","postalCode":"100072402"},"timeZoneInfo":{"currentTimeOffset":-240,"windowsTimeZoneId":"Eastern Standard Time","olsonTimeZoneId":"GMT-05:00 America/New_York"},"brandName":"Starbucks","ownershipTypeCode":"CO","open":true,"openStatusText":"Open until 8:00 PM","addressLines":["120 Church Street","New York, NY 10007"],"mop":{"ready":false,"wait":null},"schedule":[{"dayName":"Today","hours":"6:00 AM to 8:00 PM","open":true,"holiday":""},{"dayName":"Tomorrow","hours":"5:00 AM to 7:30 PM","open":true,"holiday":""},{"dayName":"Tuesday","hours":"5:00 AM to 7:30 PM","open":true,"holiday":""},{"dayName":"Wednesday","hours":"5:00 AM to 7:30 PM","open":true,"holiday":""},{"dayName":"Thursday","hours":"5:00 AM to 7:30 PM","open":true,"holiday":""},{"dayName":"Friday","hours":"5:00 AM to 8:30 PM","open":true,"holiday":""},{"dayName":"Saturday","hours":"5:00 AM to 8:00 PM","open":true,"holiday":""}],"features":[{"code":"WA","name":"Oven-warmed Food"},{"code":"CD","name":"Mobile Payment"},{"code":"DR","name":"Digital Rewards"},{"code":"LB","name":"LaBoulange"},{"code":"GO","name":"Google Wi-Fi"},{"code":"XO","name":"Mobile Order and Pay"},{"code":"MX","name":"Music Experience"},{"code":"LU","name":"Lunch"},{"code":"BE","name":"tbd - Blonde Espresso"}],"slug":"church-street-murray-120-church-street-new-york-ny-100072402-us"},{"recommendation":{},"storeNumber":"16627-169964","id":"90577","name":"John & Water Streets","phoneNumber":"2123440894","coordinates":{"latitude":40.707142,"longitude":-74.004987},"regulations":[{"code":"taxForOutOfStoreConsumption"}],"address":{"streetAddressLine1":"135 John Street","streetAddressLine2":null,"streetAddressLine3":null,"city":"New York","countrySubdivisionCode":"NY","countryCode":"US","postalCode":"100383524"},"timeZoneInfo":{"currentTimeOffset":-240,"windowsTimeZoneId":"Eastern Standard Time","olsonTimeZoneId":"GMT-05:00 America/New_York"},"brandName":"Starbucks","ownershipTypeCode":"CO","open":true,"openStatusText":"Open until 6:30 PM","addressLines":["135 John Street","New York, NY 10038"],"mop":{"ready":false,"wait":null},"schedule":[{"dayName":"Today","hours":"6:30 AM to 6:30 PM","open":true,"holiday":""},{"dayName":"Tomorrow","hours":"6:30 AM to 6:30 PM","open":true,"holiday":""},{"dayName":"Tuesday","hours":"6:30 AM to 6:30 PM","open":true,"holiday":""},{"dayName":"Wednesday","hours":"6:30 AM to 6:30 PM","open":true,"holiday":""},{"dayName":"Thursday","hours":"6:30 AM to 6:30 PM","open":true,"holiday":""},{"dayName":"Friday","hours":"6:30 AM to 6:30 PM","open":true,"holiday":""},{"dayName":"Saturday","hours":"6:30 AM to 6:30 PM","open":true,"holiday":""}],"features":[{"code":"WA","name":"Oven-warmed Food"},{"code":"CD","name":"Mobile Payment"},{"code":"DR","name":"Digital Rewards"},{"code":"LB","name":"LaBoulange"},{"code":"GO","name":"Google Wi-Fi"},{"code":"XO","name":"Mobile Order and Pay"},{"code":"MX","name":"Music Experience"},{"code":"NB","name":"Nitro Cold Brew"},{"code":"LU","name":"Lunch"},{"code":"BE","name":"tbd - Blonde Espresso"}],"slug":"john-water-streets-135-john-street-new-york-ny-100383524-us"},{"recommendation":{},"storeNumber":"7878-83763","id":"1004742","name":"Pearl & Maiden","phoneNumber":"212-480-3970","coordinates":{"latitude":40.706316,"longitude":-74.006582},"regulations":[{"code":"taxForOutOfStoreConsumption"}],"address":{"streetAddressLine1":"80 Pine Street","streetAddressLine2":null,"streetAddressLine3":null,"city":"New York","countrySubdivisionCode":"NY","countryCode":"US","postalCode":"100051702"},"timeZoneInfo":{"currentTimeOffset":-240,"windowsTimeZoneId":"Eastern Standard Time","olsonTimeZoneId":"GMT-05:00 America/New_York"},"brandName":"Starbucks","ownershipTypeCode":"CO","open":true,"openStatusText":"Open until 5:00 PM","addressLines":["80 Pine Street","New York, NY 10005"],"mop":{"ready":false,"wait":null},"schedule":[{"dayName":"Today","hours":"7:00 AM to 5:00 PM","open":true,"holiday":""},{"dayName":"Tomorrow","hours":"6:00 AM to 6:00 PM","open":true,"holiday":""},{"dayName":"Tuesday","hours":"6:00 AM to 6:00 PM","open":true,"holiday":""},{"dayName":"Wednesday","hours":"6:00 AM to 6:00 PM","open":true,"holiday":""},{"dayName":"Thursday","hours":"6:00 AM to 6:00 PM","open":true,"holiday":""},{"dayName":"Friday","hours":"6:00 AM to 6:00 PM","open":true,"holiday":""},{"dayName":"Saturday","hours":"6:30 AM to 6:00 PM","open":true,"holiday":""}],"features":[{"code":"WA","name":"Oven-warmed Food"},{"code":"CD","name":"Mobile Payment"},{"code":"DR","name":"Digital Rewards"},{"code":"LB","name":"LaBoulange"},{"code":"GO","name":"Google Wi-Fi"},{"code":"XO","name":"Mobile Order and Pay"},{"code":"MX","name":"Music Experience"},{"code":"LU","name":"Lunch"},{"code":"BE","name":"tbd - Blonde Espresso"}],"slug":"pearl-maiden-80-pine-street-new-york-ny-100051702-us"},{"recommendation":{},"storeNumber":"20763-207924","id":"1006984","name":"60 Wall St","phoneNumber":"3474614068","coordinates":{"latitude":40.706033,"longitude":-74.008348},"regulations":[{"code":"taxForOutOfStoreConsumption"}],"address":{"streetAddressLine1":"60 Wall St","streetAddressLine2":null,"streetAddressLine3":null,"city":"New York","countrySubdivisionCode":"NY","countryCode":"US","postalCode":"10005"},"timeZoneInfo":{"currentTimeOffset":-240,"windowsTimeZoneId":"Eastern Standard Time","olsonTimeZoneId":"GMT-05:00 America/New_York"},"brandName":"Starbucks","ownershipTypeCode":"CO","open":true,"openStatusText":"Open until 5:30 PM","addressLines":["60 Wall St","New York, NY 10005"],"mop":{"ready":false,"wait":null},"schedule":[{"dayName":"Today","hours":"7:30 AM to 5:30 PM","open":true,"holiday":""},{"dayName":"Tomorrow","hours":"6:00 AM to 6:30 PM","open":true,"holiday":""},{"dayName":"Tuesday","hours":"6:00 AM to 6:30 PM","open":true,"holiday":""},{"dayName":"Wednesday","hours":"6:00 AM to 6:30 PM","open":true,"holiday":""},{"dayName":"Thursday","hours":"6:00 AM to 6:30 PM","open":true,"holiday":""},{"dayName":"Friday","hours":"6:00 AM to 6:30 PM","open":true,"holiday":""},{"dayName":"Saturday","hours":"7:30 AM to 5:30 PM","open":true,"holiday":""}],"features":[{"code":"WA","name":"Oven-warmed Food"},{"code":"DR","name":"Digital Rewards"},{"code":"LB","name":"LaBoulange"},{"code":"GO","name":"Google Wi-Fi"},{"code":"XO","name":"Mobile Order and Pay"},{"code":"MX","name":"Music Experience"},{"code":"LU","name":"Lunch"},{"code":"BE","name":"tbd - Blonde Espresso"}],"slug":"60-wall-st-60-wall-st-new-york-ny-10005-us"},{"recommendation":{},"storeNumber":"58325-292364","id":"1024524","name":"Secure Access - BNY Mellon 16th Fl","phoneNumber":"2128152250","coordinates":{"latitude":40.713394,"longitude":-74.011697},"regulations":[],"address":{"streetAddressLine1":"240 Greenwich Street","streetAddressLine2":"16th Floor","streetAddressLine3":null,"city":"New York","countrySubdivisionCode":"NY","countryCode":"US","postalCode":"10286"},"timeZoneInfo":{"currentTimeOffset":-240,"windowsTimeZoneId":"Eastern Standard Time","olsonTimeZoneId":"GMT-05:00 America/New_York"},"brandName":"Starbucks","ownershipTypeCode":"LS","open":false,"openStatusText":"Closed","addressLines":["240 Greenwich Street","16th Floor","New York, NY 10286"],"mop":{"ready":false,"wait":null},"schedule":[{"dayName":"Today","hours":"Closed","open":false,"holiday":""},{"dayName":"Tomorrow","hours":"7:00 AM to 5:00 PM","open":true,"holiday":""},{"dayName":"Tuesday","hours":"7:00 AM to 5:00 PM","open":true,"holiday":""},{"dayName":"Wednesday","hours":"7:00 AM to 5:00 PM","open":true,"holiday":""},{"dayName":"Thursday","hours":"7:00 AM to 5:00 PM","open":true,"holiday":""},{"dayName":"Friday","hours":"7:00 AM to 5:00 PM","open":true,"holiday":""},{"dayName":"Saturday","hours":"Closed","open":false,"holiday":""}],"features":[{"code":"WA","name":"Oven-warmed Food"},{"code":"CD","name":"Mobile Payment"},{"code":"LB","name":"LaBoulange"},{"code":"NB","name":"Nitro Cold Brew"},{"code":"LU","name":"Lunch"},{"code":"PS","name":"Playbook Store System"},{"code":"BE","name":"tbd - Blonde Espresso"}],"slug":"secure-access-bny-mellon-16th-fl-240-greenwich-street-new-york-ny-10286-us"},{"recommendation":{},"storeNumber":"27849-248907","id":"1017449","name":"Carlisle and Washington","phoneNumber":"646-860-8615","coordinates":{"latitude":40.70921,"longitude":-74.014159},"regulations":[{"code":"taxForOutOfStoreConsumption"}],"address":{"streetAddressLine1":"15 Carlisle St","streetAddressLine2":null,"streetAddressLine3":null,"city":"New York","countrySubdivisionCode":"NY","countryCode":"US","postalCode":"10006"},"timeZoneInfo":{"currentTimeOffset":-240,"windowsTimeZoneId":"Eastern Standard Time","olsonTimeZoneId":"GMT-05:00 America/New_York"},"brandName":"Starbucks","ownershipTypeCode":"CO","open":true,"openStatusText":"Open until 6:30 PM","addressLines":["15 Carlisle St","New York, NY 10006"],"mop":{"ready":false,"wait":null},"schedule":[{"dayName":"Today","hours":"6:00 AM to 6:30 PM","open":true,"holiday":""},{"dayName":"Tomorrow","hours":"6:00 AM to 7:00 PM","open":true,"holiday":""},{"dayName":"Tuesday","hours":"6:00 AM to 7:00 PM","open":true,"holiday":""},{"dayName":"Wednesday","hours":"6:00 AM to 7:00 PM","open":true,"holiday":""},{"dayName":"Thursday","hours":"6:00 AM to 7:00 PM","open":true,"holiday":""},{"dayName":"Friday","hours":"6:00 AM to 7:00 PM","open":true,"holiday":""},{"dayName":"Saturday","hours":"6:00 AM to 7:00 PM","open":true,"holiday":""}],"features":[{"code":"WA","name":"Oven-warmed Food"},{"code":"LB","name":"LaBoulange"},{"code":"GO","name":"Google Wi-Fi"},{"code":"XO","name":"Mobile Order and Pay"},{"code":"NB","name":"Nitro Cold Brew"},{"code":"LU","name":"Lunch"},{"code":"RW","name":"My Starbucks Rewards"},{"code":"PS","name":"Playbook Store System"},{"code":"CS","name":"tbd - Coffee Scale"},{"code":"BE","name":"tbd - Blonde Espresso"},{"code":"UE","name":"tbd - Uber Eats"}],"slug":"carlisle-and-washington-15-carlisle-st-new-york-ny-10006-us"},{"recommendation":{},"storeNumber":"7566-13122","id":"18526","name":"Broadway & Reade","phoneNumber":"212 406 5310","coordinates":{"latitude":40.714855,"longitude":-74.005933},"regulations":[{"code":"taxForOutOfStoreConsumption"}],"address":{"streetAddressLine1":"291 Broadway","streetAddressLine2":null,"streetAddressLine3":null,"city":"New York","countrySubdivisionCode":"NY","countryCode":"US","postalCode":"100071814"},"timeZoneInfo":{"currentTimeOffset":-240,"windowsTimeZoneId":"Eastern Standard Time","olsonTimeZoneId":"GMT-05:00 America/New_York"},"brandName":"Starbucks","ownershipTypeCode":"CO","open":true,"openStatusText":"Open until 6:30 PM","addressLines":["291 Broadway","New York, NY 10007"],"mop":{"ready":false,"wait":null},"schedule":[{"dayName":"Today","hours":"6:30 AM to 6:30 PM","open":true,"holiday":""},{"dayName":"Tomorrow","hours":"6:00 AM to 6:30 PM","open":true,"holiday":""},{"dayName":"Tuesday","hours":"6:00 AM to 6:30 PM","open":true,"holiday":""},{"dayName":"Wednesday","hours":"6:00 AM to 6:30 PM","open":true,"holiday":""},{"dayName":"Thursday","hours":"6:00 AM to 6:30 PM","open":true,"holiday":""},{"dayName":"Friday","hours":"6:00 AM to 6:30 PM","open":true,"holiday":""},{"dayName":"Saturday","hours":"7:30 AM to 6:30 PM","open":true,"holiday":""}],"features":[{"code":"WA","name":"Oven-warmed Food"},{"code":"WF","name":"Wireless Hotspot"},{"code":"CD","name":"Mobile Payment"},{"code":"DR","name":"Digital Rewards"},{"code":"LB","name":"LaBoulange"},{"code":"XO","name":"Mobile Order and Pay"},{"code":"MX","name":"Music Experience"},{"code":"NB","name":"Nitro Cold Brew"},{"code":"LU","name":"Lunch"},{"code":"BE","name":"tbd - Blonde Espresso"},{"code":"UE","name":"tbd - Uber Eats"}],"slug":"broadway-reade-291-broadway-new-york-ny-100071814-us"},{"recommendation":{},"storeNumber":"53473-285598","id":"1021354","name":"Broadway & Exchange Pl.","phoneNumber":"2122487487","coordinates":{"latitude":40.706894,"longitude":-74.013011},"regulations":[{"code":"taxForOutOfStoreConsumption"}],"address":{"streetAddressLine1":"55 Broadway","streetAddressLine2":null,"streetAddressLine3":null,"city":"New York","countrySubdivisionCode":"NY","countryCode":"US","postalCode":"10006"},"timeZoneInfo":{"currentTimeOffset":-240,"windowsTimeZoneId":"Eastern Standard Time","olsonTimeZoneId":"GMT-05:00 America/New_York"},"brandName":"Starbucks","ownershipTypeCode":"CO","open":true,"openStatusText":"Open until 5:30 PM","addressLines":["55 Broadway","New York, NY 10006"],"mop":{"ready":false,"wait":null},"schedule":[{"dayName":"Today","hours":"10:00 AM to 5:30 PM","open":true,"holiday":""},{"dayName":"Tomorrow","hours":"6:00 AM to 7:00 PM","open":true,"holiday":""},{"dayName":"Tuesday","hours":"6:00 AM to 7:00 PM","open":true,"holiday":""},{"dayName":"Wednesday","hours":"6:00 AM to 7:00 PM","open":true,"holiday":""},{"dayName":"Thursday","hours":"6:00 AM to 7:00 PM","open":true,"holiday":""},{"dayName":"Friday","hours":"6:00 AM to 7:00 PM","open":true,"holiday":""},{"dayName":"Saturday","hours":"7:00 AM to 6:00 PM","open":true,"holiday":""}],"features":[{"code":"WA","name":"Oven-warmed Food"},{"code":"WF","name":"Wireless Hotspot"},{"code":"CD","name":"Mobile Payment"},{"code":"DR","name":"Digital Rewards"},{"code":"LB","name":"LaBoulange"},{"code":"GO","name":"Google Wi-Fi"},{"code":"XO","name":"Mobile Order and Pay"},{"code":"NB","name":"Nitro Cold Brew"},{"code":"LU","name":"Lunch"},{"code":"RW","name":"My Starbucks Rewards"},{"code":"PS","name":"Playbook Store System"}],"slug":"broadway-exchange-pl-55-broadway-new-york-ny-10006-us"},{"recommendation":{},"storeNumber":"20154-203326","id":"1005523","name":"99 Wall Street","phoneNumber":"212-487-1906","coordinates":{"latitude":40.704817,"longitude":-74.007231},"regulations":[{"code":"taxForOutOfStoreConsumption"}],"address":{"streetAddressLine1":"99 Wall St.","streetAddressLine2":null,"streetAddressLine3":null,"city":"New York","countrySubdivisionCode":"NY","countryCode":"US","postalCode":"10005"},"timeZoneInfo":{"currentTimeOffset":-240,"windowsTimeZoneId":"Eastern Standard Time","olsonTimeZoneId":"GMT-05:00 America/New_York"},"brandName":"Starbucks","ownershipTypeCode":"CO","open":true,"openStatusText":"Open until 7:00 PM","addressLines":["99 Wall St.","New York, NY 10005"],"mop":{"ready":false,"wait":null},"schedule":[{"dayName":"Today","hours":"6:30 AM to 7:00 PM","open":true,"holiday":""},{"dayName":"Tomorrow","hours":"6:00 AM to 7:30 PM","open":true,"holiday":""},{"dayName":"Tuesday","hours":"6:00 AM to 7:30 PM","open":true,"holiday":""},{"dayName":"Wednesday","hours":"6:00 AM to 7:30 PM","open":true,"holiday":""},{"dayName":"Thursday","hours":"6:00 AM to 7:30 PM","open":true,"holiday":""},{"dayName":"Friday","hours":"6:00 AM to 7:00 PM","open":true,"holiday":""},{"dayName":"Saturday","hours":"6:30 AM to 6:30 PM","open":true,"holiday":""}],"features":[{"code":"WA","name":"Oven-warmed Food"},{"code":"CD","name":"Mobile Payment"},{"code":"DR","name":"Digital Rewards"},{"code":"LB","name":"LaBoulange"},{"code":"GO","name":"Google Wi-Fi"},{"code":"XO","name":"Mobile Order and Pay"},{"code":"MX","name":"Music Experience"},{"code":"NB","name":"Nitro Cold Brew"},{"code":"LU","name":"Lunch"},{"code":"RW","name":"My Starbucks Rewards"},{"code":"BE","name":"tbd - Blonde Espresso"}],"slug":"99-wall-street-99-wall-st-new-york-ny-10005-us"},{"recommendation":{},"storeNumber":"28171-250310","id":"1019476","name":"375 Pearl st","phoneNumber":"6465742921","coordinates":{"latitude":40.711,"longitude":-74.000878},"regulations":[{"code":"taxForOutOfStoreConsumption"}],"address":{"streetAddressLine1":"375 Pearl st","streetAddressLine2":null,"streetAddressLine3":null,"city":"New York","countrySubdivisionCode":"NY","countryCode":"US","postalCode":"10038"},"timeZoneInfo":{"currentTimeOffset":-240,"windowsTimeZoneId":"Eastern Standard Time","olsonTimeZoneId":"GMT-05:00 America/New_York"},"brandName":"Starbucks","ownershipTypeCode":"CO","open":true,"openStatusText":"Open until 5:00 PM","addressLines":["375 Pearl st","New York, NY 10038"],"mop":{"ready":false,"wait":null},"schedule":[{"dayName":"Today","hours":"7:30 AM to 5:00 PM","open":true,"holiday":""},{"dayName":"Tomorrow","hours":"6:00 AM to 6:30 PM","open":true,"holiday":""},{"dayName":"Tuesday","hours":"6:00 AM to 6:30 PM","open":true,"holiday":""},{"dayName":"Wednesday","hours":"6:00 AM to 6:30 PM","open":true,"holiday":""},{"dayName":"Thursday","hours":"6:00 AM to 6:30 PM","open":true,"holiday":""},{"dayName":"Friday","hours":"6:00 AM to 7:00 PM","open":true,"holiday":""},{"dayName":"Saturday","hours":"7:30 AM to 6:00 PM","open":true,"holiday":""}],"features":[{"code":"WA","name":"Oven-warmed Food"},{"code":"CD","name":"Mobile Payment"},{"code":"DR","name":"Digital Rewards"},{"code":"LB","name":"LaBoulange"},{"code":"GO","name":"Google Wi-Fi"},{"code":"XO","name":"Mobile Order and Pay"},{"code":"NB","name":"Nitro Cold Brew"},{"code":"LU","name":"Lunch"},{"code":"RW","name":"My Starbucks Rewards"},{"code":"PS","name":"Playbook Store System"},{"code":"BE","name":"tbd - Blonde Espresso"},{"code":"UE","name":"tbd - Uber Eats"}],"slug":"375-pearl-st-375-pearl-st-new-york-ny-10038-us"},{"recommendation":{},"storeNumber":"7466-6651","id":"8692","name":"Chambers and West Broadway","phoneNumber":"212-791-6368","coordinates":{"latitude":40.715536,"longitude":-74.009036},"regulations":[{"code":"taxForOutOfStoreConsumption"}],"address":{"streetAddressLine1":"125 Chambers Street","streetAddressLine2":null,"streetAddressLine3":null,"city":"New York","countrySubdivisionCode":"NY","countryCode":"US","postalCode":"100071331"},"timeZoneInfo":{"currentTimeOffset":-240,"windowsTimeZoneId":"Eastern Standard Time","olsonTimeZoneId":"GMT-05:00 America/New_York"},"brandName":"Starbucks","ownershipTypeCode":"CO","open":true,"openStatusText":"Open until 8:00 PM","addressLines":["125 Chambers Street","New York, NY 10007"],"mop":{"ready":false,"wait":null},"schedule":[{"dayName":"Today","hours":"6:30 AM to 8:00 PM","open":true,"holiday":""},{"dayName":"Tomorrow","hours":"5:30 AM to 8:30 PM","open":true,"holiday":""},{"dayName":"Tuesday","hours":"5:30 AM to 8:30 PM","open":true,"holiday":""},{"dayName":"Wednesday","hours":"5:30 AM to 8:30 PM","open":true,"holiday":""},{"dayName":"Thursday","hours":"5:30 AM to 8:30 PM","open":true,"holiday":""},{"dayName":"Friday","hours":"5:30 AM to 9:00 PM","open":true,"holiday":""},{"dayName":"Saturday","hours":"6:00 AM to 9:00 PM","open":true,"holiday":""}],"features":[{"code":"WA","name":"Oven-warmed Food"},{"code":"CD","name":"Mobile Payment"},{"code":"DR","name":"Digital Rewards"},{"code":"LB","name":"LaBoulange"},{"code":"GO","name":"Google Wi-Fi"},{"code":"XO","name":"Mobile Order and Pay"},{"code":"MX","name":"Music Experience"},{"code":"NB","name":"Nitro Cold Brew"},{"code":"LU","name":"Lunch"},{"code":"BE","name":"tbd - Blonde Espresso"},{"code":"UE","name":"tbd - Uber Eats"}],"slug":"chambers-and-west-broadway-125-chambers-street-new-york-ny-100071331-us"},{"recommendation":{},"storeNumber":"7416-834","id":"16214","name":"55 Broad Street","phoneNumber":"(212) 742-2490","coordinates":{"latitude":40.705161,"longitude":-74.011295},"regulations":[{"code":"taxForOutOfStoreConsumption"}],"address":{"streetAddressLine1":"55 Broad Street","streetAddressLine2":null,"streetAddressLine3":null,"city":"New York","countrySubdivisionCode":"NY","countryCode":"US","postalCode":"100042501"},"timeZoneInfo":{"currentTimeOffset":-240,"windowsTimeZoneId":"Eastern Standard Time","olsonTimeZoneId":"GMT-05:00 America/New_York"},"brandName":"Starbucks","ownershipTypeCode":"CO","open":true,"openStatusText":"Open until 8:00 PM","addressLines":["55 Broad Street","New York, NY 10004"],"mop":{"ready":false,"wait":null},"schedule":[{"dayName":"Today","hours":"7:00 AM to 8:00 PM","open":true,"holiday":""},{"dayName":"Tomorrow","hours":"6:00 AM to 8:30 PM","open":true,"holiday":""},{"dayName":"Tuesday","hours":"6:00 AM to 8:30 PM","open":true,"holiday":""},{"dayName":"Wednesday","hours":"6:00 AM to 8:30 PM","open":true,"holiday":""},{"dayName":"Thursday","hours":"6:00 AM to 8:30 PM","open":true,"holiday":""},{"dayName":"Friday","hours":"6:00 AM to 9:00 PM","open":true,"holiday":""},{"dayName":"Saturday","hours":"6:30 AM to 8:00 PM","open":true,"holiday":""}],"features":[{"code":"CL","name":"Starbucks Reserve-Clover Brewed"},{"code":"WA","name":"Oven-warmed Food"},{"code":"CD","name":"Mobile Payment"},{"code":"DR","name":"Digital Rewards"},{"code":"LB","name":"LaBoulange"},{"code":"GO","name":"Google Wi-Fi"},{"code":"XO","name":"Mobile Order and Pay"},{"code":"MX","name":"Music Experience"},{"code":"NB","name":"Nitro Cold Brew"},{"code":"LU","name":"Lunch"},{"code":"BE","name":"tbd - Blonde Espresso"}],"slug":"55-broad-street-55-broad-street-new-york-ny-100042501-us"},{"recommendation":{},"storeNumber":"10282-100718","id":"7912","name":"Pearl & Hanover","phoneNumber":"212-482-6530","coordinates":{"latitude":40.704602,"longitude":-74.009125},"regulations":[{"code":"taxForOutOfStoreConsumption"}],"address":{"streetAddressLine1":"110 Pearl Street","streetAddressLine2":null,"streetAddressLine3":null,"city":"New York","countrySubdivisionCode":"NY","countryCode":"US","postalCode":"100053510"},"timeZoneInfo":{"currentTimeOffset":-240,"windowsTimeZoneId":"Eastern Standard Time","olsonTimeZoneId":"GMT-05:00 America/New_York"},"brandName":"Starbucks","ownershipTypeCode":"CO","open":true,"openStatusText":"Open until 6:30 PM","addressLines":["110 Pearl Street","New York, NY 10005"],"mop":{"ready":false,"wait":null},"schedule":[{"dayName":"Today","hours":"6:30 AM to 6:30 PM","open":true,"holiday":""},{"dayName":"Tomorrow","hours":"6:00 AM to 6:30 PM","open":true,"holiday":""},{"dayName":"Tuesday","hours":"6:00 AM to 6:30 PM","open":true,"holiday":""},{"dayName":"Wednesday","hours":"6:00 AM to 6:30 PM","open":true,"holiday":""},{"dayName":"Thursday","hours":"6:00 AM to 6:30 PM","open":true,"holiday":""},{"dayName":"Friday","hours":"6:00 AM to 7:00 PM","open":true,"holiday":""},{"dayName":"Saturday","hours":"6:30 AM to 7:00 PM","open":true,"holiday":""}],"features":[{"code":"WA","name":"Oven-warmed Food"},{"code":"CD","name":"Mobile Payment"},{"code":"DR","name":"Digital Rewards"},{"code":"LB","name":"LaBoulange"},{"code":"GO","name":"Google Wi-Fi"},{"code":"XO","name":"Mobile Order and Pay"},{"code":"MX","name":"Music Experience"},{"code":"LU","name":"Lunch"},{"code":"PS","name":"Playbook Store System"},{"code":"BE","name":"tbd - Blonde Espresso"}],"slug":"pearl-hanover-110-pearl-street-new-york-ny-100053510-us"},{"recommendation":{},"storeNumber":"9238-193184","id":"113971","name":"Brookfield Place 1 (200 Liberty)","phoneNumber":"2125879512","coordinates":{"latitude":40.710868,"longitude":-74.015396},"regulations":[{"code":"taxForOutOfStoreConsumption"}],"address":{"streetAddressLine1":"200 Liberty St","streetAddressLine2":"L105","streetAddressLine3":null,"city":"New York","countrySubdivisionCode":"NY","countryCode":"US","postalCode":"10006"},"timeZoneInfo":{"currentTimeOffset":-240,"windowsTimeZoneId":"Eastern Standard Time","olsonTimeZoneId":"GMT-05:00 America/New_York"},"brandName":"Starbucks","ownershipTypeCode":"CO","open":false,"openStatusText":"Closed","addressLines":["200 Liberty St","L105","New York, NY 10006"],"mop":{"ready":false,"wait":null},"schedule":[{"dayName":"Today","hours":"Closed","open":false,"holiday":""},{"dayName":"Tomorrow","hours":"6:00 AM to 5:30 PM","open":true,"holiday":""},{"dayName":"Tuesday","hours":"6:00 AM to 5:30 PM","open":true,"holiday":""},{"dayName":"Wednesday","hours":"6:00 AM to 5:30 PM","open":true,"holiday":""},{"dayName":"Thursday","hours":"6:00 AM to 5:30 PM","open":true,"holiday":""},{"dayName":"Friday","hours":"6:00 AM to 6:00 PM","open":true,"holiday":""},{"dayName":"Saturday","hours":"Closed","open":false,"holiday":""}],"features":[{"code":"WA","name":"Oven-warmed Food"},{"code":"CD","name":"Mobile Payment"},{"code":"DR","name":"Digital Rewards"},{"code":"LB","name":"LaBoulange"},{"code":"GO","name":"Google Wi-Fi"},{"code":"XO","name":"Mobile Order and Pay"},{"code":"MX","name":"Music Experience"},{"code":"LU","name":"Lunch"},{"code":"BE","name":"tbd - Blonde Espresso"}],"slug":"brookfield-place-1-200-liberty-200-liberty-st-new-york-ny-10006-us"},{"recommendation":{},"storeNumber":"7781-50879","id":"15295","name":"Lafayette & Worth","phoneNumber":"2129648846","coordinates":{"latitude":40.715731,"longitude":-74.003115},"regulations":[{"code":"taxForOutOfStoreConsumption"}],"address":{"streetAddressLine1":"111 Worth Street","streetAddressLine2":null,"streetAddressLine3":null,"city":"New York","countrySubdivisionCode":"NY","countryCode":"US","postalCode":"100134008"},"timeZoneInfo":{"currentTimeOffset":-240,"windowsTimeZoneId":"Eastern Standard Time","olsonTimeZoneId":"GMT-05:00 America/New_York"},"brandName":"Starbucks","ownershipTypeCode":"CO","open":true,"openStatusText":"Open until 6:30 PM","addressLines":["111 Worth Street","New York, NY 10013"],"mop":{"ready":false,"wait":null},"schedule":[{"dayName":"Today","hours":"7:30 AM to 6:30 PM","open":true,"holiday":""},{"dayName":"Tomorrow","hours":"6:30 AM to 6:00 PM","open":true,"holiday":""},{"dayName":"Tuesday","hours":"6:30 AM to 6:00 PM","open":true,"holiday":""},{"dayName":"Wednesday","hours":"6:30 AM to 6:00 PM","open":true,"holiday":""},{"dayName":"Thursday","hours":"6:30 AM to 6:00 PM","open":true,"holiday":""},{"dayName":"Friday","hours":"6:30 AM to 6:30 PM","open":true,"holiday":""},{"dayName":"Saturday","hours":"7:00 AM to 6:30 PM","open":true,"holiday":""}],"features":[{"code":"WA","name":"Oven-warmed Food"},{"code":"CD","name":"Mobile Payment"},{"code":"DR","name":"Digital Rewards"},{"code":"LB","name":"LaBoulange"},{"code":"GO","name":"Google Wi-Fi"},{"code":"XO","name":"Mobile Order and Pay"},{"code":"MX","name":"Music Experience"},{"code":"NB","name":"Nitro Cold Brew"},{"code":"LU","name":"Lunch"},{"code":"BE","name":"tbd - Blonde Espresso"}],"slug":"lafayette-worth-111-worth-street-new-york-ny-100134008-us"},{"recommendation":{},"storeNumber":"47020-256344","id":"1015738","name":"Brookfield Place 2 (230 Vesey)","phoneNumber":"6466185392","coordinates":{"latitude":40.71417,"longitude":-74.015437},"regulations":[{"code":"taxForOutOfStoreConsumption"}],"address":{"streetAddressLine1":"250 Vesey Street","streetAddressLine2":"203","streetAddressLine3":null,"city":"New York","countrySubdivisionCode":"NY","countryCode":"US","postalCode":"10281"},"timeZoneInfo":{"currentTimeOffset":-240,"windowsTimeZoneId":"Eastern Standard Time","olsonTimeZoneId":"GMT-05:00 America/New_York"},"brandName":"Starbucks","ownershipTypeCode":"CO","open":true,"openStatusText":"Open until 6:30 PM","addressLines":["250 Vesey Street","203","New York, NY 10281"],"mop":{"ready":false,"wait":null},"schedule":[{"dayName":"Today","hours":"6:30 AM to 6:30 PM","open":true,"holiday":""},{"dayName":"Tomorrow","hours":"6:00 AM to 7:00 PM","open":true,"holiday":""},{"dayName":"Tuesday","hours":"6:00 AM to 7:00 PM","open":true,"holiday":""},{"dayName":"Wednesday","hours":"6:00 AM to 7:00 PM","open":true,"holiday":""},{"dayName":"Thursday","hours":"6:00 AM to 7:00 PM","open":true,"holiday":""},{"dayName":"Friday","hours":"6:00 AM to 8:00 PM","open":true,"holiday":""},{"dayName":"Saturday","hours":"6:00 AM to 7:30 PM","open":true,"holiday":""}],"features":[{"code":"CL","name":"Starbucks Reserve-Clover Brewed"},{"code":"WA","name":"Oven-warmed Food"},{"code":"WF","name":"Wireless Hotspot"},{"code":"CD","name":"Mobile Payment"},{"code":"DR","name":"Digital Rewards"},{"code":"LB","name":"LaBoulange"},{"code":"GO","name":"Google Wi-Fi"},{"code":"XO","name":"Mobile Order and Pay"},{"code":"LU","name":"Lunch"},{"code":"RW","name":"My Starbucks Rewards"},{"code":"PS","name":"Playbook Store System"},{"code":"CS","name":"tbd - Coffee Scale"},{"code":"BE","name":"tbd - Blonde Espresso"}],"slug":"brookfield-place-2-230-vesey-250-vesey-street-new-york-ny-10281-us"},{"recommendation":{},"storeNumber":"7920-88803","id":"12804","name":"2 Broadway","phoneNumber":"212-344-4290","coordinates":{"latitude":40.704349,"longitude":-74.013016},"regulations":[{"code":"taxForOutOfStoreConsumption"}],"address":{"streetAddressLine1":"2 Broadway","streetAddressLine2":null,"streetAddressLine3":null,"city":"New York","countrySubdivisionCode":"NY","countryCode":"US","postalCode":"100042207"},"timeZoneInfo":{"currentTimeOffset":-240,"windowsTimeZoneId":"Eastern Standard Time","olsonTimeZoneId":"GMT-05:00 America/New_York"},"brandName":"Starbucks","ownershipTypeCode":"CO","open":true,"openStatusText":"Open until 7:00 PM","addressLines":["2 Broadway","New York, NY 10004"],"mop":{"ready":false,"wait":null},"schedule":[{"dayName":"Today","hours":"5:30 AM to 7:00 PM","open":true,"holiday":""},{"dayName":"Tomorrow","hours":"5:30 AM to 7:00 PM","open":true,"holiday":""},{"dayName":"Tuesday","hours":"5:30 AM to 7:00 PM","open":true,"holiday":""},{"dayName":"Wednesday","hours":"5:30 AM to 7:00 PM","open":true,"holiday":""},{"dayName":"Thursday","hours":"5:30 AM to 7:00 PM","open":true,"holiday":""},{"dayName":"Friday","hours":"5:30 AM to 8:00 PM","open":true,"holiday":""},{"dayName":"Saturday","hours":"6:30 AM to 7:00 PM","open":true,"holiday":""}],"features":[{"code":"WA","name":"Oven-warmed Food"},{"code":"CD","name":"Mobile Payment"},{"code":"DR","name":"Digital Rewards"},{"code":"LB","name":"LaBoulange"},{"code":"GO","name":"Google Wi-Fi"},{"code":"XO","name":"Mobile Order and Pay"},{"code":"MX","name":"Music Experience"},{"code":"LU","name":"Lunch"},{"code":"BE","name":"tbd - Blonde Espresso"},{"code":"UE","name":"tbd - Uber Eats"}],"slug":"2-broadway-2-broadway-new-york-ny-100042207-us"},{"recommendation":{},"storeNumber":"15751-162574","id":"66292","name":"W Broadway & Leonard Street","phoneNumber":"2123437402","coordinates":{"latitude":40.718233,"longitude":-74.00732},"regulations":[{"code":"taxForOutOfStoreConsumption"}],"address":{"streetAddressLine1":"180 West Broadway","streetAddressLine2":null,"streetAddressLine3":null,"city":"New York","countrySubdivisionCode":"NY","countryCode":"US","postalCode":"100132906"},"timeZoneInfo":{"currentTimeOffset":-240,"windowsTimeZoneId":"Eastern Standard Time","olsonTimeZoneId":"GMT-05:00 America/New_York"},"brandName":"Starbucks","ownershipTypeCode":"CO","open":true,"openStatusText":"Open until 7:30 PM","addressLines":["180 West Broadway","New York, NY 10013"],"mop":{"ready":false,"wait":null},"schedule":[{"dayName":"Today","hours":"7:00 AM to 7:30 PM","open":true,"holiday":""},{"dayName":"Tomorrow","hours":"6:00 AM to 8:30 PM","open":true,"holiday":""},{"dayName":"Tuesday","hours":"6:00 AM to 8:30 PM","open":true,"holiday":""},{"dayName":"Wednesday","hours":"6:00 AM to 8:30 PM","open":true,"holiday":""},{"dayName":"Thursday","hours":"6:00 AM to 8:30 PM","open":true,"holiday":""},{"dayName":"Friday","hours":"6:00 AM to 7:30 PM","open":true,"holiday":""},{"dayName":"Saturday","hours":"5:30 AM to 7:00 PM","open":true,"holiday":""}],"features":[{"code":"CL","name":"Starbucks Reserve-Clover Brewed"},{"code":"WA","name":"Oven-warmed Food"},{"code":"CD","name":"Mobile Payment"},{"code":"DR","name":"Digital Rewards"},{"code":"LB","name":"LaBoulange"},{"code":"GO","name":"Google Wi-Fi"},{"code":"XO","name":"Mobile Order and Pay"},{"code":"MX","name":"Music Experience"},{"code":"NB","name":"Nitro Cold Brew"},{"code":"LU","name":"Lunch"},{"code":"RW","name":"My Starbucks Rewards"},{"code":"BE","name":"tbd - Blonde Espresso"},{"code":"UE","name":"tbd - Uber Eats"}],"slug":"w-broadway-leonard-street-180-west-broadway-new-york-ny-100132906-us"},{"recommendation":{},"storeNumber":"7244-646","id":"16686","name":"State St & Pearl Streets","phoneNumber":"2124821180","coordinates":{"latitude":40.703287,"longitude":-74.014122},"regulations":[{"code":"taxForOutOfStoreConsumption"}],"address":{"streetAddressLine1":"1 Battery Park Plaza","streetAddressLine2":null,"streetAddressLine3":null,"city":"New York","countrySubdivisionCode":"NY","countryCode":"US","postalCode":"100041405"},"timeZoneInfo":{"currentTimeOffset":-240,"windowsTimeZoneId":"Eastern Standard Time","olsonTimeZoneId":"GMT-05:00 America/New_York"},"brandName":"Starbucks","ownershipTypeCode":"CO","open":true,"openStatusText":"Open until 8:30 PM","addressLines":["1 Battery Park Plaza","New York, NY 10004"],"mop":{"ready":false,"wait":null},"schedule":[{"dayName":"Today","hours":"6:30 AM to 8:30 PM","open":true,"holiday":""},{"dayName":"Tomorrow","hours":"5:30 AM to 9:00 PM","open":true,"holiday":""},{"dayName":"Tuesday","hours":"5:30 AM to 9:00 PM","open":true,"holiday":""},{"dayName":"Wednesday","hours":"5:30 AM to 9:00 PM","open":true,"holiday":""},{"dayName":"Thursday","hours":"5:30 AM to 9:00 PM","open":true,"holiday":""},{"dayName":"Friday","hours":"5:30 AM to 9:00 PM","open":true,"holiday":""},{"dayName":"Saturday","hours":"6:00 AM to 8:30 PM","open":true,"holiday":""}],"features":[{"code":"WA","name":"Oven-warmed Food"},{"code":"WF","name":"Wireless Hotspot"},{"code":"CD","name":"Mobile Payment"},{"code":"DR","name":"Digital Rewards"},{"code":"LB","name":"LaBoulange"},{"code":"XO","name":"Mobile Order and Pay"},{"code":"MX","name":"Music Experience"},{"code":"NB","name":"Nitro Cold Brew"},{"code":"LU","name":"Lunch"},{"code":"BE","name":"tbd - Blonde Espresso"},{"code":"UE","name":"tbd - Uber Eats"}],"slug":"state-st-pearl-streets-1-battery-park-plaza-new-york-ny-100041405-us"},{"recommendation":{},"storeNumber":"22258-219066","id":"1008845","name":"Water St @ Broad (inside)","phoneNumber":"212-785-8409","coordinates":{"latitude":40.702046,"longitude":-74.012033},"regulations":[{"code":"taxForOutOfStoreConsumption"}],"address":{"streetAddressLine1":"1 New York Plaza","streetAddressLine2":null,"streetAddressLine3":null,"city":"New York","countrySubdivisionCode":"NY","countryCode":"US","postalCode":"10004"},"timeZoneInfo":{"currentTimeOffset":-240,"windowsTimeZoneId":"Eastern Standard Time","olsonTimeZoneId":"GMT-05:00 America/New_York"},"brandName":"Starbucks","ownershipTypeCode":"CO","open":false,"openStatusText":"Closed","addressLines":["1 New York Plaza","New York, NY 10004"],"mop":{"ready":false,"wait":null},"schedule":[{"dayName":"Today","hours":"Closed","open":false,"holiday":""},{"dayName":"Tomorrow","hours":"6:30 AM to 6:00 PM","open":true,"holiday":""},{"dayName":"Tuesday","hours":"6:30 AM to 6:00 PM","open":true,"holiday":""},{"dayName":"Wednesday","hours":"6:30 AM to 6:00 PM","open":true,"holiday":""},{"dayName":"Thursday","hours":"6:30 AM to 6:00 PM","open":true,"holiday":""},{"dayName":"Friday","hours":"6:30 AM to 5:00 PM","open":true,"holiday":""},{"dayName":"Saturday","hours":"Closed","open":false,"holiday":""}],"features":[{"code":"CL","name":"Starbucks Reserve-Clover Brewed"},{"code":"WA","name":"Oven-warmed Food"},{"code":"CD","name":"Mobile Payment"},{"code":"DR","name":"Digital Rewards"},{"code":"LB","name":"LaBoulange"},{"code":"GO","name":"Google Wi-Fi"},{"code":"XO","name":"Mobile Order and Pay"},{"code":"MX","name":"Music Experience"},{"code":"NB","name":"Nitro Cold Brew"},{"code":"LU","name":"Lunch"},{"code":"RW","name":"My Starbucks Rewards"},{"code":"PS","name":"Playbook Store System"},{"code":"CS","name":"tbd - Coffee Scale"},{"code":"BE","name":"tbd - Blonde Espresso"}],"slug":"water-st-broad-inside-1-new-york-plaza-new-york-ny-10004-us"},{"recommendation":{},"storeNumber":"11934-106845","id":"17070","name":"Broadway & Canal","phoneNumber":"646-613-0148","coordinates":{"latitude":40.718904,"longitude":-74.002519},"regulations":[{"code":"taxForOutOfStoreConsumption"}],"address":{"streetAddressLine1":"405 Broadway","streetAddressLine2":null,"streetAddressLine3":null,"city":"New York","countrySubdivisionCode":"NY","countryCode":"US","postalCode":"100133558"},"timeZoneInfo":{"currentTimeOffset":-240,"windowsTimeZoneId":"Eastern Standard Time","olsonTimeZoneId":"GMT-05:00 America/New_York"},"brandName":"Starbucks","ownershipTypeCode":"CO","open":true,"openStatusText":"Open until 8:00 PM","addressLines":["405 Broadway","New York, NY 10013"],"mop":{"ready":false,"wait":null},"schedule":[{"dayName":"Today","hours":"7:00 AM to 8:00 PM","open":true,"holiday":""},{"dayName":"Tomorrow","hours":"6:30 AM to 8:00 PM","open":true,"holiday":""},{"dayName":"Tuesday","hours":"6:30 AM to 8:00 PM","open":true,"holiday":""},{"dayName":"Wednesday","hours":"6:30 AM to 8:00 PM","open":true,"holiday":""},{"dayName":"Thursday","hours":"6:30 AM to 8:00 PM","open":true,"holiday":""},{"dayName":"Friday","hours":"6:30 AM to 8:00 PM","open":true,"holiday":""},{"dayName":"Saturday","hours":"7:00 AM to 8:30 PM","open":true,"holiday":""}],"features":[{"code":"WA","name":"Oven-warmed Food"},{"code":"VS","name":"Verismo"},{"code":"CD","name":"Mobile Payment"},{"code":"DR","name":"Digital Rewards"},{"code":"LB","name":"LaBoulange"},{"code":"GO","name":"Google Wi-Fi"},{"code":"XO","name":"Mobile Order and Pay"},{"code":"MX","name":"Music Experience"},{"code":"LU","name":"Lunch"},{"code":"PS","name":"Playbook Store System"},{"code":"BE","name":"tbd - Blonde Espresso"}],"slug":"broadway-canal-405-broadway-new-york-ny-100133558-us"},{"recommendation":{},"storeNumber":"20259-184464","id":"1007714","name":"6th Ave at Walker Street","phoneNumber":"2129660984","coordinates":{"latitude":40.719851,"longitude":-74.004951},"regulations":[{"code":"taxForOutOfStoreConsumption"}],"address":{"streetAddressLine1":"32 Avenue of the Americas","streetAddressLine2":null,"streetAddressLine3":null,"city":"New York","countrySubdivisionCode":"NY","countryCode":"US","postalCode":"10013"},"timeZoneInfo":{"currentTimeOffset":-240,"windowsTimeZoneId":"Eastern Standard Time","olsonTimeZoneId":"GMT-05:00 America/New_York"},"brandName":"Starbucks","ownershipTypeCode":"CO","open":true,"openStatusText":"Open until 7:30 PM","addressLines":["32 Avenue of the Americas","New York, NY 10013"],"mop":{"ready":false,"wait":null},"schedule":[{"dayName":"Today","hours":"6:00 AM to 7:30 PM","open":true,"holiday":""},{"dayName":"Tomorrow","hours":"5:30 AM to 7:30 PM","open":true,"holiday":""},{"dayName":"Tuesday","hours":"5:30 AM to 7:30 PM","open":true,"holiday":""},{"dayName":"Wednesday","hours":"5:30 AM to 7:30 PM","open":true,"holiday":""},{"dayName":"Thursday","hours":"5:30 AM to 7:30 PM","open":true,"holiday":""},{"dayName":"Friday","hours":"5:30 AM to 8:00 PM","open":true,"holiday":""},{"dayName":"Saturday","hours":"6:00 AM to 9:00 PM","open":true,"holiday":""}],"features":[{"code":"WA","name":"Oven-warmed Food"},{"code":"WF","name":"Wireless Hotspot"},{"code":"CD","name":"Mobile Payment"},{"code":"DR","name":"Digital Rewards"},{"code":"LB","name":"LaBoulange"},{"code":"GO","name":"Google Wi-Fi"},{"code":"XO","name":"Mobile Order and Pay"},{"code":"MX","name":"Music Experience"},{"code":"NB","name":"Nitro Cold Brew"},{"code":"LU","name":"Lunch"},{"code":"SQ","name":"tbd"},{"code":"BE","name":"tbd - Blonde Espresso"},{"code":"UE","name":"tbd - Uber Eats"}],"slug":"6th-ave-at-walker-street-32-avenue-of-the-americas-new-york-ny-10013-us"},{"recommendation":{},"storeNumber":"7680-36959","id":"11834","name":"Canal and Centre","phoneNumber":"212-219-2725","coordinates":{"latitude":40.718329,"longitude":-74.000014},"regulations":[{"code":"taxForOutOfStoreConsumption"}],"address":{"streetAddressLine1":"241 Canal Street","streetAddressLine2":null,"streetAddressLine3":null,"city":"New York","countrySubdivisionCode":"NY","countryCode":"US","postalCode":"100134118"},"timeZoneInfo":{"currentTimeOffset":-240,"windowsTimeZoneId":"Eastern Standard Time","olsonTimeZoneId":"GMT-05:00 America/New_York"},"brandName":"Starbucks","ownershipTypeCode":"CO","open":true,"openStatusText":"Open until 8:30 PM","addressLines":["241 Canal Street","New York, NY 10013"],"mop":{"ready":false,"wait":null},"schedule":[{"dayName":"Today","hours":"6:00 AM to 8:30 PM","open":true,"holiday":""},{"dayName":"Tomorrow","hours":"6:00 AM to 8:00 PM","open":true,"holiday":""},{"dayName":"Tuesday","hours":"6:00 AM to 8:00 PM","open":true,"holiday":""},{"dayName":"Wednesday","hours":"6:00 AM to 8:00 PM","open":true,"holiday":""},{"dayName":"Thursday","hours":"6:00 AM to 8:00 PM","open":true,"holiday":""},{"dayName":"Friday","hours":"6:00 AM to 9:30 PM","open":true,"holiday":""},{"dayName":"Saturday","hours":"5:30 AM to 9:00 PM","open":true,"holiday":""}],"features":[{"code":"WA","name":"Oven-warmed Food"},{"code":"WF","name":"Wireless Hotspot"},{"code":"VS","name":"Verismo"},{"code":"CD","name":"Mobile Payment"},{"code":"DR","name":"Digital Rewards"},{"code":"LB","name":"LaBoulange"},{"code":"XO","name":"Mobile Order and Pay"},{"code":"MX","name":"Music Experience"},{"code":"NB","name":"Nitro Cold Brew"},{"code":"LU","name":"Lunch"},{"code":"BE","name":"tbd - Blonde Espresso"},{"code":"UE","name":"tbd - Uber Eats"}],"slug":"canal-and-centre-241-canal-street-new-york-ny-100134118-us"},{"recommendation":{},"storeNumber":"57966-249616","id":"1025373","name":"Secure Access - Citigroup NYC","phoneNumber":null,"coordinates":{"latitude":40.720676,"longitude":-74.010121},"regulations":[],"address":{"streetAddressLine1":"388 Greenwich Street","streetAddressLine2":null,"streetAddressLine3":null,"city":"New York","countrySubdivisionCode":"NY","countryCode":"US","postalCode":"10013"},"timeZoneInfo":{"currentTimeOffset":-240,"windowsTimeZoneId":"Eastern Standard Time","olsonTimeZoneId":"GMT-05:00 America/New_York"},"brandName":"Starbucks","ownershipTypeCode":"LS","open":null,"openStatusText":"","addressLines":["388 Greenwich Street","New York, NY 10013"],"mop":{"ready":false,"wait":null},"features":[],"slug":"secure-access-citigroup-nyc-388-greenwich-street-new-york-ny-10013-us"},{"recommendation":{},"storeNumber":"54878-285861","id":"1021634","name":"157 Lafayette","phoneNumber":null,"coordinates":{"latitude":40.719799,"longitude":-73.999217},"regulations":[],"address":{"streetAddressLine1":"157 Lafayette street","streetAddressLine2":null,"streetAddressLine3":null,"city":"New York","countrySubdivisionCode":"NY","countryCode":"US","postalCode":"10013"},"timeZoneInfo":{"currentTimeOffset":-240,"windowsTimeZoneId":"Eastern Standard Time","olsonTimeZoneId":"GMT-05:00 America/New_York"},"brandName":"Starbucks","ownershipTypeCode":"LS","open":true,"openStatusText":"Open until 7:00 PM","addressLines":["157 Lafayette street","New York, NY 10013"],"mop":{"ready":false,"wait":null},"schedule":[{"dayName":"Today","hours":"7:00 AM to 7:00 PM","open":true,"holiday":""},{"dayName":"Tomorrow","hours":"7:00 AM to 7:00 PM","open":true,"holiday":""},{"dayName":"Tuesday","hours":"7:00 AM to 7:00 PM","open":true,"holiday":""},{"dayName":"Wednesday","hours":"7:00 AM to 7:00 PM","open":true,"holiday":""},{"dayName":"Thursday","hours":"7:00 AM to 7:00 PM","open":true,"holiday":""},{"dayName":"Friday","hours":"7:00 AM to 8:00 PM","open":true,"holiday":""},{"dayName":"Saturday","hours":"7:00 AM to 8:00 PM","open":true,"holiday":""}],"features":[{"code":"WA","name":"Oven-warmed Food"},{"code":"NB","name":"Nitro Cold Brew"},{"code":"LU","name":"Lunch"},{"code":"PS","name":"Playbook Store System"},{"code":"BE","name":"tbd - Blonde Espresso"}],"slug":"157-lafayette-157-lafayette-street-new-york-ny-10013-us"},{"recommendation":{},"storeNumber":"48340-262465","id":"1017790","name":"11 Old Fulton St.-DUMBO","phoneNumber":"9176857717","coordinates":{"latitude":40.702901,"longitude":-73.993622},"regulations":[{"code":"taxForOutOfStoreConsumption"}],"address":{"streetAddressLine1":"11 Old Fulton St.","streetAddressLine2":null,"streetAddressLine3":null,"city":"Brooklyn","countrySubdivisionCode":"NY","countryCode":"US","postalCode":"11201"},"timeZoneInfo":{"currentTimeOffset":-240,"windowsTimeZoneId":"Eastern Standard Time","olsonTimeZoneId":"GMT-05:00 America/New_York"},"brandName":"Starbucks","ownershipTypeCode":"CO","open":true,"openStatusText":"Open until 8:30 PM","addressLines":["11 Old Fulton St.","Brooklyn, NY 11201"],"mop":{"ready":false,"wait":null},"schedule":[{"dayName":"Today","hours":"7:00 AM to 8:30 PM","open":true,"holiday":""},{"dayName":"Tomorrow","hours":"6:30 AM to 8:30 PM","open":true,"holiday":""},{"dayName":"Tuesday","hours":"6:30 AM to 8:30 PM","open":true,"holiday":""},{"dayName":"Wednesday","hours":"6:30 AM to 8:30 PM","open":true,"holiday":""},{"dayName":"Thursday","hours":"6:30 AM to 8:30 PM","open":true,"holiday":""},{"dayName":"Friday","hours":"6:30 AM to 8:30 PM","open":true,"holiday":""},{"dayName":"Saturday","hours":"6:30 AM to 8:30 PM","open":true,"holiday":""}],"features":[{"code":"WA","name":"Oven-warmed Food"},{"code":"CD","name":"Mobile Payment"},{"code":"DR","name":"Digital Rewards"},{"code":"GO","name":"Google Wi-Fi"},{"code":"XO","name":"Mobile Order and Pay"},{"code":"NB","name":"Nitro Cold Brew"},{"code":"MC","name":"Mercato"},{"code":"LU","name":"Lunch"},{"code":"BE","name":"tbd - Blonde Espresso"}],"slug":"11-old-fulton-st-dumbo-11-old-fulton-st-brooklyn-ny-11201-us"},{"recommendation":{},"storeNumber":"854-2051","id":"9347","name":"Spring Street at Crosby St","phoneNumber":"212-219-2961","coordinates":{"latitude":40.722536,"longitude":-73.997959},"regulations":[{"code":"taxForOutOfStoreConsumption"}],"address":{"streetAddressLine1":"72 SPRING STREET","streetAddressLine2":null,"streetAddressLine3":null,"city":"New York","countrySubdivisionCode":"NY","countryCode":"US","postalCode":"100124019"},"timeZoneInfo":{"currentTimeOffset":-240,"windowsTimeZoneId":"Eastern Standard Time","olsonTimeZoneId":"GMT-05:00 America/New_York"},"brandName":"Starbucks","ownershipTypeCode":"CO","open":true,"openStatusText":"Open until 9:30 PM","addressLines":["72 SPRING STREET","New York, NY 10012"],"mop":{"ready":false,"wait":null},"schedule":[{"dayName":"Today","hours":"6:00 AM to 9:30 PM","open":true,"holiday":""},{"dayName":"Tomorrow","hours":"5:00 AM to 10:00 PM","open":true,"holiday":""},{"dayName":"Tuesday","hours":"5:00 AM to 10:00 PM","open":true,"holiday":""},{"dayName":"Wednesday","hours":"5:00 AM to 10:00 PM","open":true,"holiday":""},{"dayName":"Thursday","hours":"5:00 AM to 10:00 PM","open":true,"holiday":""},{"dayName":"Friday","hours":"5:00 AM to 10:30 PM","open":true,"holiday":""},{"dayName":"Saturday","hours":"5:30 AM to 10:30 PM","open":true,"holiday":""}],"features":[{"code":"CL","name":"Starbucks Reserve-Clover Brewed"},{"code":"WA","name":"Oven-warmed Food"},{"code":"VS","name":"Verismo"},{"code":"CD","name":"Mobile Payment"},{"code":"DR","name":"Digital Rewards"},{"code":"LB","name":"LaBoulange"},{"code":"GO","name":"Google Wi-Fi"},{"code":"XO","name":"Mobile Order and Pay"},{"code":"MX","name":"Music Experience"},{"code":"LU","name":"Lunch"},{"code":"BE","name":"tbd - Blonde Espresso"}],"slug":"spring-street-at-crosby-st-72-spring-street-new-york-ny-100124019-us"},{"recommendation":{},"storeNumber":"9368-96106","id":"16940","name":"Main St & Front St","phoneNumber":"718-855-0856","coordinates":{"latitude":40.702695,"longitude":-73.990904},"regulations":[{"code":"taxForOutOfStoreConsumption"}],"address":{"streetAddressLine1":"67 Front Street","streetAddressLine2":null,"streetAddressLine3":null,"city":"Brooklyn","countrySubdivisionCode":"NY","countryCode":"US","postalCode":"112011001"},"timeZoneInfo":{"currentTimeOffset":-240,"windowsTimeZoneId":"Eastern Standard Time","olsonTimeZoneId":"GMT-05:00 America/New_York"},"brandName":"Starbucks","ownershipTypeCode":"CO","open":true,"openStatusText":"Open until 9:00 PM","addressLines":["67 Front Street","Brooklyn, NY 11201"],"mop":{"ready":false,"wait":null},"schedule":[{"dayName":"Today","hours":"6:00 AM to 9:00 PM","open":true,"holiday":""},{"dayName":"Tomorrow","hours":"5:30 AM to 9:00 PM","open":true,"holiday":""},{"dayName":"Tuesday","hours":"5:30 AM to 9:00 PM","open":true,"holiday":""},{"dayName":"Wednesday","hours":"5:30 AM to 9:00 PM","open":true,"holiday":""},{"dayName":"Thursday","hours":"5:30 AM to 9:00 PM","open":true,"holiday":""},{"dayName":"Friday","hours":"5:30 AM to 9:30 PM","open":true,"holiday":""},{"dayName":"Saturday","hours":"6:00 AM to 9:00 PM","open":true,"holiday":""}],"features":[{"code":"CL","name":"Starbucks Reserve-Clover Brewed"},{"code":"WA","name":"Oven-warmed Food"},{"code":"WF","name":"Wireless Hotspot"},{"code":"VS","name":"Verismo"},{"code":"CD","name":"Mobile Payment"},{"code":"DR","name":"Digital Rewards"},{"code":"LB","name":"LaBoulange"},{"code":"XO","name":"Mobile Order and Pay"},{"code":"MX","name":"Music Experience"},{"code":"NB","name":"Nitro Cold Brew"},{"code":"MC","name":"Mercato"},{"code":"LU","name":"Lunch"},{"code":"RW","name":"My Starbucks Rewards"},{"code":"BE","name":"tbd - Blonde Espresso"},{"code":"UE","name":"tbd - Uber Eats"}],"slug":"main-st-front-st-67-front-street-brooklyn-ny-112011001-us"},{"recommendation":{},"storeNumber":"7626-33939","id":"8947","name":"Spring and Varick","phoneNumber":"646-230-9816","coordinates":{"latitude":40.725772,"longitude":-74.005579},"regulations":[{"code":"taxForOutOfStoreConsumption"}],"address":{"streetAddressLine1":"150 Varick Street","streetAddressLine2":null,"streetAddressLine3":null,"city":"New York","countrySubdivisionCode":"NY","countryCode":"US","postalCode":"100131218"},"timeZoneInfo":{"currentTimeOffset":-240,"windowsTimeZoneId":"Eastern Standard Time","olsonTimeZoneId":"GMT-05:00 America/New_York"},"brandName":"Starbucks","ownershipTypeCode":"CO","open":true,"openStatusText":"Open until 7:30 PM","addressLines":["150 Varick Street","New York, NY 10013"],"mop":{"ready":false,"wait":null},"schedule":[{"dayName":"Today","hours":"6:00 AM to 7:30 PM","open":true,"holiday":""},{"dayName":"Tomorrow","hours":"6:00 AM to 8:00 PM","open":true,"holiday":""},{"dayName":"Tuesday","hours":"6:00 AM to 8:00 PM","open":true,"holiday":""},{"dayName":"Wednesday","hours":"6:00 AM to 8:00 PM","open":true,"holiday":""},{"dayName":"Thursday","hours":"6:00 AM to 8:00 PM","open":true,"holiday":""},{"dayName":"Friday","hours":"6:00 AM to 8:00 PM","open":true,"holiday":""},{"dayName":"Saturday","hours":"6:00 AM to 7:30 PM","open":true,"holiday":""}],"features":[{"code":"WA","name":"Oven-warmed Food"},{"code":"WF","name":"Wireless Hotspot"},{"code":"CD","name":"Mobile Payment"},{"code":"DR","name":"Digital Rewards"},{"code":"LB","name":"LaBoulange"},{"code":"GO","name":"Google Wi-Fi"},{"code":"XO","name":"Mobile Order and Pay"},{"code":"MX","name":"Music Experience"},{"code":"NB","name":"Nitro Cold Brew"},{"code":"LU","name":"Lunch"},{"code":"RW","name":"My Starbucks Rewards"},{"code":"PS","name":"Playbook Store System"},{"code":"BE","name":"tbd - Blonde Espresso"},{"code":"UE","name":"tbd - Uber Eats"}],"slug":"spring-and-varick-150-varick-street-new-york-ny-100131218-us"},{"recommendation":{},"storeNumber":"10044-99132","id":"9589","name":"Allen & Delancey","phoneNumber":"917 5341397","coordinates":{"latitude":40.719323,"longitude":-73.989949},"regulations":[{"code":"taxForOutOfStoreConsumption"}],"address":{"streetAddressLine1":"80 Delancey Street","streetAddressLine2":null,"streetAddressLine3":null,"city":"New York","countrySubdivisionCode":"NY","countryCode":"US","postalCode":"100023133"},"timeZoneInfo":{"currentTimeOffset":-240,"windowsTimeZoneId":"Eastern Standard Time","olsonTimeZoneId":"GMT-05:00 America/New_York"},"brandName":"Starbucks","ownershipTypeCode":"CO","open":true,"openStatusText":"Open until 9:00 PM","addressLines":["80 Delancey Street","New York, NY 10002"],"mop":{"ready":false,"wait":null},"schedule":[{"dayName":"Today","hours":"6:00 AM to 9:00 PM","open":true,"holiday":""},{"dayName":"Tomorrow","hours":"6:00 AM to 10:00 PM","open":true,"holiday":""},{"dayName":"Tuesday","hours":"6:00 AM to 10:00 PM","open":true,"holiday":""},{"dayName":"Wednesday","hours":"6:00 AM to 10:00 PM","open":true,"holiday":""},{"dayName":"Thursday","hours":"6:00 AM to 10:00 PM","open":true,"holiday":""},{"dayName":"Friday","hours":"6:00 AM to 10:00 PM","open":true,"holiday":""},{"dayName":"Saturday","hours":"6:00 AM to 10:00 PM","open":true,"holiday":""}],"features":[{"code":"CL","name":"Starbucks Reserve-Clover Brewed"},{"code":"WA","name":"Oven-warmed Food"},{"code":"VS","name":"Verismo"},{"code":"CD","name":"Mobile Payment"},{"code":"DR","name":"Digital Rewards"},{"code":"LB","name":"LaBoulange"},{"code":"GO","name":"Google Wi-Fi"},{"code":"XO","name":"Mobile Order and Pay"},{"code":"MX","name":"Music Experience"},{"code":"NB","name":"Nitro Cold Brew"},{"code":"LU","name":"Lunch"},{"code":"BE","name":"tbd - Blonde Espresso"},{"code":"UE","name":"tbd - Uber Eats"}],"slug":"allen-delancey-80-delancey-street-new-york-ny-100023133-us"},{"recommendation":{},"storeNumber":"11649-105788","id":"17392","name":"Hudson & King","phoneNumber":"646-486-0514","coordinates":{"latitude":40.72756,"longitude":-74.007408},"regulations":[{"code":"taxForOutOfStoreConsumption"}],"address":{"streetAddressLine1":"345 Hudson St.","streetAddressLine2":null,"streetAddressLine3":null,"city":"New York","countrySubdivisionCode":"NY","countryCode":"US","postalCode":"100144502"},"timeZoneInfo":{"currentTimeOffset":-240,"windowsTimeZoneId":"Eastern Standard Time","olsonTimeZoneId":"GMT-05:00 America/New_York"},"brandName":"Starbucks","ownershipTypeCode":"CO","open":false,"openStatusText":"Closed","addressLines":["345 Hudson St.","New York, NY 10014"],"mop":{"ready":false,"wait":null},"schedule":[{"dayName":"Today","hours":"Closed","open":false,"holiday":""},{"dayName":"Tomorrow","hours":"5:00 AM to 6:30 PM","open":true,"holiday":""},{"dayName":"Tuesday","hours":"5:00 AM to 6:30 PM","open":true,"holiday":""},{"dayName":"Wednesday","hours":"5:00 AM to 6:30 PM","open":true,"holiday":""},{"dayName":"Thursday","hours":"5:00 AM to 6:30 PM","open":true,"holiday":""},{"dayName":"Friday","hours":"5:00 AM to 6:00 PM","open":true,"holiday":""},{"dayName":"Saturday","hours":"Closed","open":false,"holiday":""}],"features":[{"code":"WA","name":"Oven-warmed Food"},{"code":"WF","name":"Wireless Hotspot"},{"code":"CD","name":"Mobile Payment"},{"code":"DR","name":"Digital Rewards"},{"code":"LB","name":"LaBoulange"},{"code":"XO","name":"Mobile Order and Pay"},{"code":"MX","name":"Music Experience"},{"code":"NB","name":"Nitro Cold Brew"},{"code":"LU","name":"Lunch"},{"code":"BE","name":"tbd - Blonde Espresso"}],"slug":"hudson-king-345-hudson-st-new-york-ny-100144502-us"},{"recommendation":{},"storeNumber":"14219-116045","id":"6995","name":"Houston & W. Broadway","phoneNumber":"212-254-0139","coordinates":{"latitude":40.72689,"longitude":-74.000262},"regulations":[{"code":"taxForOutOfStoreConsumption"}],"address":{"streetAddressLine1":"482 West Broadway","streetAddressLine2":null,"streetAddressLine3":null,"city":"New York","countrySubdivisionCode":"NY","countryCode":"US","postalCode":"100125333"},"timeZoneInfo":{"currentTimeOffset":-240,"windowsTimeZoneId":"Eastern Standard Time","olsonTimeZoneId":"GMT-05:00 America/New_York"},"brandName":"Starbucks","ownershipTypeCode":"CO","open":true,"openStatusText":"Open until 8:00 PM","addressLines":["482 West Broadway","New York, NY 10012"],"mop":{"ready":false,"wait":null},"schedule":[{"dayName":"Today","hours":"6:00 AM to 8:00 PM","open":true,"holiday":""},{"dayName":"Tomorrow","hours":"6:00 AM to 8:30 PM","open":true,"holiday":""},{"dayName":"Tuesday","hours":"6:00 AM to 8:30 PM","open":true,"holiday":""},{"dayName":"Wednesday","hours":"6:00 AM to 8:30 PM","open":true,"holiday":""},{"dayName":"Thursday","hours":"6:00 AM to 8:30 PM","open":true,"holiday":""},{"dayName":"Friday","hours":"6:00 AM to 9:30 PM","open":true,"holiday":""},{"dayName":"Saturday","hours":"6:30 AM to 9:30 PM","open":true,"holiday":""}],"features":[{"code":"WA","name":"Oven-warmed Food"},{"code":"VS","name":"Verismo"},{"code":"CD","name":"Mobile Payment"},{"code":"DR","name":"Digital Rewards"},{"code":"LB","name":"LaBoulange"},{"code":"GO","name":"Google Wi-Fi"},{"code":"XO","name":"Mobile Order and Pay"},{"code":"MX","name":"Music Experience"},{"code":"NB","name":"Nitro Cold Brew"},{"code":"LU","name":"Lunch"},{"code":"BE","name":"tbd - Blonde Espresso"},{"code":"UE","name":"tbd - Uber Eats"}],"slug":"houston-w-broadway-482-west-broadway-new-york-ny-100125333-us"},{"recommendation":{},"storeNumber":"844-169565","id":"88600","name":"134 Montague Street","phoneNumber":"7182430455","coordinates":{"latitude":40.694563,"longitude":-73.993968},"regulations":[{"code":"taxForOutOfStoreConsumption"}],"address":{"streetAddressLine1":"134 Montague Street","streetAddressLine2":null,"streetAddressLine3":null,"city":"Brooklyn","countrySubdivisionCode":"NY","countryCode":"US","postalCode":"112013533"},"timeZoneInfo":{"currentTimeOffset":-240,"windowsTimeZoneId":"Eastern Standard Time","olsonTimeZoneId":"GMT-05:00 America/New_York"},"brandName":"Starbucks","ownershipTypeCode":"CO","open":true,"openStatusText":"Open until 9:00 PM","addressLines":["134 Montague Street","Brooklyn, NY 11201"],"mop":{"ready":false,"wait":null},"schedule":[{"dayName":"Today","hours":"6:30 AM to 9:00 PM","open":true,"holiday":""},{"dayName":"Tomorrow","hours":"5:30 AM to 9:00 PM","open":true,"holiday":""},{"dayName":"Tuesday","hours":"5:30 AM to 9:00 PM","open":true,"holiday":""},{"dayName":"Wednesday","hours":"5:30 AM to 9:00 PM","open":true,"holiday":""},{"dayName":"Thursday","hours":"5:30 AM to 9:00 PM","open":true,"holiday":""},{"dayName":"Friday","hours":"5:30 AM to 9:00 PM","open":true,"holiday":""},{"dayName":"Saturday","hours":"6:00 AM to 9:00 PM","open":true,"holiday":""}],"features":[{"code":"WA","name":"Oven-warmed Food"},{"code":"VS","name":"Verismo"},{"code":"CD","name":"Mobile Payment"},{"code":"DR","name":"Digital Rewards"},{"code":"LB","name":"LaBoulange"},{"code":"GO","name":"Google Wi-Fi"},{"code":"XO","name":"Mobile Order and Pay"},{"code":"MX","name":"Music Experience"},{"code":"NB","name":"Nitro Cold Brew"},{"code":"MC","name":"Mercato"},{"code":"LU","name":"Lunch"},{"code":"PS","name":"Playbook Store System"},{"code":"BE","name":"tbd - Blonde Espresso"},{"code":"UE","name":"tbd - Uber Eats"}],"slug":"134-montague-street-134-montague-street-brooklyn-ny-112013533-us"},{"recommendation":{},"storeNumber":"7497-8627","id":"16853","name":"Broadway and Bond","phoneNumber":"917-534-0799","coordinates":{"latitude":40.727193,"longitude":-73.99546},"regulations":[{"code":"taxForOutOfStoreConsumption"}],"address":{"streetAddressLine1":"665 Broadway","streetAddressLine2":null,"streetAddressLine3":null,"city":"New York","countrySubdivisionCode":"NY","countryCode":"US","postalCode":"100122300"},"timeZoneInfo":{"currentTimeOffset":-240,"windowsTimeZoneId":"Eastern Standard Time","olsonTimeZoneId":"GMT-05:00 America/New_York"},"brandName":"Starbucks","ownershipTypeCode":"CO","open":true,"openStatusText":"Open until 9:00 PM","addressLines":["665 Broadway","New York, NY 10012"],"mop":{"ready":false,"wait":null},"schedule":[{"dayName":"Today","hours":"7:00 AM to 9:00 PM","open":true,"holiday":""},{"dayName":"Tomorrow","hours":"6:00 AM to 8:30 PM","open":true,"holiday":""},{"dayName":"Tuesday","hours":"6:00 AM to 8:30 PM","open":true,"holiday":""},{"dayName":"Wednesday","hours":"6:00 AM to 8:30 PM","open":true,"holiday":""},{"dayName":"Thursday","hours":"6:00 AM to 8:30 PM","open":true,"holiday":""},{"dayName":"Friday","hours":"6:00 AM to 8:30 PM","open":true,"holiday":""},{"dayName":"Saturday","hours":"7:00 AM to 9:00 PM","open":true,"holiday":""}],"features":[{"code":"WA","name":"Oven-warmed Food"},{"code":"VS","name":"Verismo"},{"code":"CD","name":"Mobile Payment"},{"code":"DR","name":"Digital Rewards"},{"code":"LB","name":"LaBoulange"},{"code":"GO","name":"Google Wi-Fi"},{"code":"XO","name":"Mobile Order and Pay"},{"code":"MX","name":"Music Experience"},{"code":"NB","name":"Nitro Cold Brew"},{"code":"LU","name":"Lunch"},{"code":"BE","name":"tbd - Blonde Espresso"}],"slug":"broadway-and-bond-665-broadway-new-york-ny-100122300-us"},{"recommendation":{},"storeNumber":"17862-134219","id":"90279","name":"Jersey City, Exchange Place","phoneNumber":"201-332-3920","coordinates":{"latitude":40.716043,"longitude":-74.033229},"regulations":[],"address":{"streetAddressLine1":"15 Exchange Place","streetAddressLine2":"Suite 110","streetAddressLine3":null,"city":"Jersey City","countrySubdivisionCode":"NJ","countryCode":"US","postalCode":"073023914"},"timeZoneInfo":{"currentTimeOffset":-240,"windowsTimeZoneId":"Eastern Standard Time","olsonTimeZoneId":"GMT-05:00 America/New_York"},"brandName":"Starbucks","ownershipTypeCode":"CO","open":true,"openStatusText":"Open until 9:00 PM","addressLines":["15 Exchange Place","Suite 110","Jersey City, NJ 07302"],"mop":{"ready":false,"wait":null},"schedule":[{"dayName":"Today","hours":"7:30 AM to 9:00 PM","open":true,"holiday":""},{"dayName":"Tomorrow","hours":"5:30 AM to 10:00 PM","open":true,"holiday":""},{"dayName":"Tuesday","hours":"5:30 AM to 10:00 PM","open":true,"holiday":""},{"dayName":"Wednesday","hours":"5:30 AM to 10:00 PM","open":true,"holiday":""},{"dayName":"Thursday","hours":"5:30 AM to 10:00 PM","open":true,"holiday":""},{"dayName":"Friday","hours":"5:30 AM to 10:30 PM","open":true,"holiday":""},{"dayName":"Saturday","hours":"7:00 AM to 10:00 PM","open":true,"holiday":""}],"features":[{"code":"WA","name":"Oven-warmed Food"},{"code":"CD","name":"Mobile Payment"},{"code":"DR","name":"Digital Rewards"},{"code":"LB","name":"LaBoulange"},{"code":"GO","name":"Google Wi-Fi"},{"code":"XO","name":"Mobile Order and Pay"},{"code":"MX","name":"Music Experience"},{"code":"LU","name":"Lunch"},{"code":"RW","name":"My Starbucks Rewards"},{"code":"PS","name":"Playbook Store System"},{"code":"BE","name":"tbd - Blonde Espresso"}],"slug":"jersey-city-exchange-place-15-exchange-place-jersey-city-nj-073023914-us"},{"recommendation":{},"storeNumber":"16255-162586","id":"70170","name":"3rd St & First Avenue","phoneNumber":"2127771752","coordinates":{"latitude":40.724536,"longitude":-73.987691},"regulations":[{"code":"taxForOutOfStoreConsumption"}],"address":{"streetAddressLine1":"49 -1/2 First Avenue","streetAddressLine2":null,"streetAddressLine3":null,"city":"New York","countrySubdivisionCode":"NY","countryCode":"US","postalCode":"100039430"},"timeZoneInfo":{"currentTimeOffset":-240,"windowsTimeZoneId":"Eastern Standard Time","olsonTimeZoneId":"GMT-05:00 America/New_York"},"brandName":"Starbucks","ownershipTypeCode":"CO","open":true,"openStatusText":"Open until 7:30 PM","addressLines":["49 -1/2 First Avenue","New York, NY 10003"],"mop":{"ready":false,"wait":null},"schedule":[{"dayName":"Today","hours":"6:00 AM to 7:30 PM","open":true,"holiday":""},{"dayName":"Tomorrow","hours":"6:00 AM to 7:30 PM","open":true,"holiday":""},{"dayName":"Tuesday","hours":"6:00 AM to 7:30 PM","open":true,"holiday":""},{"dayName":"Wednesday","hours":"6:00 AM to 7:30 PM","open":true,"holiday":""},{"dayName":"Thursday","hours":"6:00 AM to 7:30 PM","open":true,"holiday":""},{"dayName":"Friday","hours":"6:00 AM to 7:30 PM","open":true,"holiday":""},{"dayName":"Saturday","hours":"6:00 AM to 7:30 PM","open":true,"holiday":""}],"features":[{"code":"WA","name":"Oven-warmed Food"},{"code":"CD","name":"Mobile Payment"},{"code":"DR","name":"Digital Rewards"},{"code":"LB","name":"LaBoulange"},{"code":"GO","name":"Google Wi-Fi"},{"code":"XO","name":"Mobile Order and Pay"},{"code":"MX","name":"Music Experience"},{"code":"NB","name":"Nitro Cold Brew"},{"code":"LU","name":"Lunch"},{"code":"BE","name":"tbd - Blonde Espresso"},{"code":"UE","name":"tbd - Uber Eats"}],"slug":"3rd-st-first-avenue-49-1-2-first-avenue-new-york-ny-100039430-us"},{"recommendation":{},"storeNumber":"21252-210045","id":"1007715","name":"239 Bleecker St","phoneNumber":"212-206-1092","coordinates":{"latitude":40.730769,"longitude":-74.002409},"regulations":[{"code":"taxForOutOfStoreConsumption"}],"address":{"streetAddressLine1":"239 Bleecker St","streetAddressLine2":null,"streetAddressLine3":null,"city":"New York","countrySubdivisionCode":"NY","countryCode":"US","postalCode":"10014"},"timeZoneInfo":{"currentTimeOffset":-240,"windowsTimeZoneId":"Eastern Standard Time","olsonTimeZoneId":"GMT-05:00 America/New_York"},"brandName":"Starbucks","ownershipTypeCode":"CO","open":true,"openStatusText":"Open until 8:00 PM","addressLines":["239 Bleecker St","New York, NY 10014"],"mop":{"ready":false,"wait":null},"schedule":[{"dayName":"Today","hours":"7:00 AM to 8:00 PM","open":true,"holiday":""},{"dayName":"Tomorrow","hours":"5:30 AM to 8:00 PM","open":true,"holiday":""},{"dayName":"Tuesday","hours":"5:30 AM to 8:00 PM","open":true,"holiday":""},{"dayName":"Wednesday","hours":"5:30 AM to 8:00 PM","open":true,"holiday":""},{"dayName":"Thursday","hours":"5:30 AM to 8:00 PM","open":true,"holiday":""},{"dayName":"Friday","hours":"5:30 AM to 9:00 PM","open":true,"holiday":""},{"dayName":"Saturday","hours":"7:00 AM to 9:00 PM","open":true,"holiday":""}],"features":[{"code":"WA","name":"Oven-warmed Food"},{"code":"CD","name":"Mobile Payment"},{"code":"DR","name":"Digital Rewards"},{"code":"LB","name":"LaBoulange"},{"code":"GO","name":"Google Wi-Fi"},{"code":"XO","name":"Mobile Order and Pay"},{"code":"MX","name":"Music Experience"},{"code":"NB","name":"Nitro Cold Brew"},{"code":"LU","name":"Lunch"},{"code":"RW","name":"My Starbucks Rewards"},{"code":"PS","name":"Playbook Store System"},{"code":"CS","name":"tbd - Coffee Scale"},{"code":"BE","name":"tbd - Blonde Espresso"},{"code":"UE","name":"tbd - Uber Eats"}],"slug":"239-bleecker-st-239-bleecker-st-new-york-ny-10014-us"},{"recommendation":{},"storeNumber":"75194-74840","id":"14149","name":"New York University","phoneNumber":"212-995-3443","coordinates":{"latitude":40.72959,"longitude":-73.996359},"regulations":[],"address":{"streetAddressLine1":"45 West 4th Street","streetAddressLine2":null,"streetAddressLine3":null,"city":"New York","countrySubdivisionCode":"NY","countryCode":"US","postalCode":"10012"},"timeZoneInfo":{"currentTimeOffset":-240,"windowsTimeZoneId":"Eastern Standard Time","olsonTimeZoneId":"GMT-05:00 America/New_York"},"brandName":"Starbucks","ownershipTypeCode":"LS","open":true,"openStatusText":"Open until 11:00 PM","addressLines":["45 West 4th Street","New York, NY 10012"],"mop":{"ready":false,"wait":null},"schedule":[{"dayName":"Today","hours":"8:00 AM to 11:00 PM","open":true,"holiday":""},{"dayName":"Tomorrow","hours":"7:00 AM to 12:00 AM","open":true,"holiday":""},{"dayName":"Tuesday","hours":"7:00 AM to 12:00 AM","open":true,"holiday":""},{"dayName":"Wednesday","hours":"7:00 AM to 12:00 AM","open":true,"holiday":""},{"dayName":"Thursday","hours":"7:00 AM to 12:00 AM","open":true,"holiday":""},{"dayName":"Friday","hours":"7:00 AM to 9:00 PM","open":true,"holiday":""},{"dayName":"Saturday","hours":"8:00 AM to 11:00 PM","open":true,"holiday":""}],"features":[{"code":"WA","name":"Oven-warmed Food"},{"code":"LB","name":"LaBoulange"},{"code":"LU","name":"Lunch"},{"code":"BA","name":"Bakery"},{"code":"BE","name":"tbd - Blonde Espresso"}],"slug":"new-york-university-45-west-4th-street-new-york-ny-10012-us"},{"recommendation":{},"storeNumber":"7358-1369","id":"13498","name":"Court St & Joralemon","phoneNumber":"(718) 855-0369","coordinates":{"latitude":40.692446,"longitude":-73.991266},"regulations":[{"code":"taxForOutOfStoreConsumption"}],"address":{"streetAddressLine1":"50 Court Street","streetAddressLine2":null,"streetAddressLine3":null,"city":"Brooklyn","countrySubdivisionCode":"NY","countryCode":"US","postalCode":"112014859"},"timeZoneInfo":{"currentTimeOffset":-240,"windowsTimeZoneId":"Eastern Standard Time","olsonTimeZoneId":"GMT-05:00 America/New_York"},"brandName":"Starbucks","ownershipTypeCode":"CO","open":true,"openStatusText":"Open until 9:00 PM","addressLines":["50 Court Street","Brooklyn, NY 11201"],"mop":{"ready":false,"wait":null},"schedule":[{"dayName":"Today","hours":"5:00 AM to 9:00 PM","open":true,"holiday":""},{"dayName":"Tomorrow","hours":"5:30 AM to 9:00 PM","open":true,"holiday":""},{"dayName":"Tuesday","hours":"5:30 AM to 9:00 PM","open":true,"holiday":""},{"dayName":"Wednesday","hours":"5:30 AM to 9:00 PM","open":true,"holiday":""},{"dayName":"Thursday","hours":"5:30 AM to 9:00 PM","open":true,"holiday":""},{"dayName":"Friday","hours":"5:30 AM to 9:00 PM","open":true,"holiday":""},{"dayName":"Saturday","hours":"5:00 AM to 9:00 PM","open":true,"holiday":""}],"features":[{"code":"WA","name":"Oven-warmed Food"},{"code":"WF","name":"Wireless Hotspot"},{"code":"CD","name":"Mobile Payment"},{"code":"DR","name":"Digital Rewards"},{"code":"LB","name":"LaBoulange"},{"code":"XO","name":"Mobile Order and Pay"},{"code":"MX","name":"Music Experience"},{"code":"NB","name":"Nitro Cold Brew"},{"code":"MC","name":"Mercato"},{"code":"LU","name":"Lunch"},{"code":"RW","name":"My Starbucks Rewards"},{"code":"BE","name":"tbd - Blonde Espresso"},{"code":"UE","name":"tbd - Uber Eats"}],"slug":"court-st-joralemon-50-court-street-brooklyn-ny-112014859-us"},{"recommendation":{},"storeNumber":"47195-257105","id":"1015672","name":"10 Waverly Place","phoneNumber":"9292590304","coordinates":{"latitude":40.729983,"longitude":-73.994265},"regulations":[{"code":"taxForOutOfStoreConsumption"}],"address":{"streetAddressLine1":"10 Waverly Place","streetAddressLine2":null,"streetAddressLine3":null,"city":"New York","countrySubdivisionCode":"NY","countryCode":"US","postalCode":"10003"},"timeZoneInfo":{"currentTimeOffset":-240,"windowsTimeZoneId":"Eastern Standard Time","olsonTimeZoneId":"GMT-05:00 America/New_York"},"brandName":"Starbucks","ownershipTypeCode":"CO","open":true,"openStatusText":"Open until 7:30 PM","addressLines":["10 Waverly Place","New York, NY 10003"],"mop":{"ready":false,"wait":null},"schedule":[{"dayName":"Today","hours":"6:30 AM to 7:30 PM","open":true,"holiday":""},{"dayName":"Tomorrow","hours":"6:00 AM to 8:00 PM","open":true,"holiday":""},{"dayName":"Tuesday","hours":"6:00 AM to 8:00 PM","open":true,"holiday":""},{"dayName":"Wednesday","hours":"6:00 AM to 8:00 PM","open":true,"holiday":""},{"dayName":"Thursday","hours":"6:00 AM to 8:00 PM","open":true,"holiday":""},{"dayName":"Friday","hours":"6:00 AM to 8:00 PM","open":true,"holiday":""},{"dayName":"Saturday","hours":"6:00 AM to 7:30 PM","open":true,"holiday":""}],"features":[{"code":"CL","name":"Starbucks Reserve-Clover Brewed"},{"code":"WA","name":"Oven-warmed Food"},{"code":"LB","name":"LaBoulange"},{"code":"GO","name":"Google Wi-Fi"},{"code":"XO","name":"Mobile Order and Pay"},{"code":"LU","name":"Lunch"},{"code":"RW","name":"My Starbucks Rewards"},{"code":"PS","name":"Playbook Store System"},{"code":"BE","name":"tbd - Blonde Espresso"}],"slug":"10-waverly-place-10-waverly-place-new-york-ny-10003-us"}],"coordinates":{"lat":40.710171,"lng":-74.007931},"zoom":"15z","run_time_iso8601":"WSundayD20190804T122946-0400"}